iata_code,icao_code,airport_name,city,country_code,latitude,longitude,elevation
UTK,,Utirik Airport,Utirik Island,MH,11.222219,169.851429,4
OCA,,Ocean Reef Club Airport,Key Largo,US,25.325399398804,-80.274803161621,8
CSE,,Crested Butte Airpark,Crested Butte,US,38.851918,-106.928341,8980
CUS,,Columbus Airport,Columbus,US,31.823898,-107.629924,4024
JCY,,LBJ Ranch Airport,Stonewall,US,30.251801,-98.622498,1515
WLR,,Loring Seaplane Base,Loring,US,55.601299,-131.636993,
NUP,,Nunapitchuk Airport,Nunapitchuk,US,60.905591,-162.440454,12
PTC,,Port Alice Seaplane Base,Port Alice,US,55.803,-133.597,0
ICY,,Icy Bay Airport,Icy Bay,US,59.966269,-141.660118,50
PPV,,Port Protection Seaplane Base,Port Protection,US,56.328800201416,-133.61000061035,0
KKK,,Kalakaket Creek AS Airport,Kalakaket Creek,US,64.4166256967,-156.820392609,1598
MHS,,Dunsmuir Muni-Mott Airport,Dunsmuir,US,41.263199,-122.272003,3258
NIR,,Chase Field Industrial Airport,Beeville,US,28.362444,-97.661917,190
GCT,,Grand Canyon Bar Ten Airstrip,Littlefield,US,36.257984,-113.231063,4100
ELW,,Ellamar Seaplane Base,Ellamar,US,60.893818,-146.704038,0
LVD,,Lime Village Airport,Lime Village,US,61.3591003418,-155.440002441,552
HGZ,,Hog River Airport,Hogatza,US,66.176133,-155.684816,534
OTN,,Ed-Air Airport,Oaktown,US,38.851782,-87.49987,426
TLF,,Telida Airport,Telida,US,63.393901824951,-153.26899719238,650
BZT,,Eagle Air Park,Brazoria,US,28.982200622559,-95.579696655273,15
HBH,,Entrance Island Seaplane Base,Entrance Island,US,57.412201,-133.43848,0
FAK,,False Island Seaplane Base,False Island,US,57.5321998596,-135.212997437,
BYW,,Blakely Island Airport,Blakely Island,US,48.579162,-122.823844,66
DRF,,Drift River Airport,Kenai,US,60.588901519800004,-152.162002563,30
BDF,,Rinkenberger Restricted Landing Area,Bradford,US,41.230899810800004,-89.61569976810001,808
TEH,,Tetlin Airport,Tetlin,US,63.124618,-142.518005,1663
VRS,,Roy Otten Memorial Airfield,Versailles,US,38.427799224854,-92.875198364258,1030
GDH,,Golden Horn Lodge Seaplane Base,Golden Horn Lodge,US,59.7470016479,-158.875,91
ATT,,Atmautluak Airport,Atmautluak,US,60.866699,-162.272996,17
LIV,,Livengood Camp Airport,Livengood,US,65.467,-148.6534,425
PDB,,Pedro Bay Airport,Pedro Bay,US,59.796925,-154.129994,45
KOZ,,Ouzinkie Airport,Ouzinkie,US,57.942094,-152.464314,55
TNK,,Tununak Airport,Tununak,US,60.569638,-165.246649,14
WHD,,Hyder Seaplane Base,Hyder,US,55.903324,-130.009975,
MNT,,Minto Al Wright Airport,Minto,US,65.147991,-149.368658,460
TKI,,Tokeen Seaplane Base,Tokeen,US,55.9370994568,-133.32699585,
WKK,,Aleknagik / New Airport,Aleknagik,US,59.2826004028,-158.617996216,66
WFB,,Ketchikan Harbor Seaplane Base,Ketchikan,US,55.349899,-131.677002,
RFK,,Rollang Field,Rolling Fork,US,32.953543,-90.845144,106
NNK,,Naknek Airport,Naknek,US,58.735633,-157.02216,70
BKF,,Lake Brooks Seaplane Base,Katmai National Park,US,58.554798,-155.776993,36
BCS,,Southern Seaplane Airport,Belle Chasse,US,29.866078,-90.021608,
MMN,,Minute Man Air Field,Stow,US,42.460298,-71.519031,268
SPQ,,Catalina Air-Sea Terminal Heliport,San Pedro,US,33.7491989136,-118.275001526,5
TSS,,East 34th Street Heliport,New York,US,40.742372,-73.972074,10
NYS,,New York Skyports Inc Seaplane Base,New York,US,40.735061,-73.972814,
BWL,,Earl Henry Airport,Blackwell,US,36.7958984375,-97.3170013428,1054
WYB,,Yes Bay Lodge Seaplane Base,Yes Bay,US,55.9163017273,-131.800994873,
CWS,,Center Island Airport,Center Island,US,48.490046,-122.831612,115
TEK,,Tatitlek Airport,Tatitlek,US,60.871449,-146.690297,62
DUF,,Pine Island Airport,Corolla,US,36.252744,-75.785256,16
SSW,,Stuart Island Airpark,Friday Harbor,US,48.673379,-123.175439,10
FOB,,Fort Bragg Airport,Fort Bragg,US,39.472445,-123.795319,71
PUL,,Port of Poulsbo Marina Moorage Seaplane Base,Poulsbo,US,47.734001159668,-122.64700317383,0
CCD,,Century City Heliport,Los Angeles,US,34.060798645,-118.417999268,473
WMK,,Meyers Chuck Seaplane Base,Meyers Chuck,US,55.7396011353,-132.255004883,0
AXB,,Maxson Airfield,Alexandria Bay,US,44.312002,-75.90034,340
REE,,Reese Airpark,Lubbock,US,33.590301513672,-102.03700256348,3338
WDN,,Waldron Airstrip,Eastsound,US,48.71141,-123.018208,140
WWP,,Whale Pass Seaplane Float Harbor Facility,Whale Pass,US,56.116299,-133.121994,
CHU,,Chuathbaluk Airport,Chuathbaluk,US,61.579102,-159.216003,244
UGS,,Ugashik Airport,Ugashik,US,57.523476,-157.396344,25
JID,,Recreation and Conference Center Heliport,City of Industry,US,34.020472,-117.927396,701
PSQ,,Philadelphia Seaplane Base,Essington,US,39.859001159668,-75.299598693848,0
KLL,,Levelock Airport,Levelock,US,59.12606,-156.860906,39
SGW,,Saginaw Seaplane Base,Saginaw Bay,US,56.8862991333,-134.158004761,0
WTL,,Tuntutuliak Airport,Tuntutuliak,US,60.351243,-162.654476,16
TWA,,Twin Hills Airport,Twin Hills,US,59.074713,-160.274992,82
KCQ,,Chignik Lake Airport,Chignik Lake,US,56.2550010681,-158.774993896,50
AAD,HCAD,Adado Airport,Adado,SO,6.095802,46.6375,1001
ABP,,Atkamba Airport,Atkamba Mission,PG,-6.06462,141.095173,150
ACM,,Arica Airport,Arica,CO,-2.143713,-71.75935,316
ADV,,El Daein Airport,El Daein,SD,11.4023,26.1186,1560
AEE,,Adareil Airport,Adar,SS,10.053611,32.959444,1301
AEQ,,Ar Horqin Airport,Chifeng,CN,43.908407,120.15099,1335
,OATD,Toorghodi Heliport,Kara Tapa,AF,35.222198,62.2906,2600
,OAAK,Andkhoy Airport,Andkhoy,AF,36.942659,65.206746,900
,OALG,Logar Airport,,AF,33.9865,69.023102,6333
,OAMK,Muqur Airport,Muqur,AF,32.879601,67.848602,6600
,OAPJ,Panjab Airport,Panjab,AF,34.391726,67.020445,8800
,OATW,Taywarah Airport,Taywarah,AF,33.54309,64.42542,7370
AFK,,Kondavattavana Tank Seaplane Base,Ampara,LK,7.284,81.644,95
AFT,AGAF,Afutara Aerodrome,Bila,SB,-9.191389,160.948611,23
RNA,AGAR,Ulawa Airport,Arona,SB,-9.86054358262,161.979546547,40
ATD,AGAT,Uru Harbour Airport,Atoifi,SB,-8.87333,161.011002,
VEV,AGBA,Barakoma Airport,Barakoma,SB,-7.912779808044434,156.70599365234375,
BPF,AGBT,Batuna Aerodrome,Batuna Mission Station,SB,-8.56202777778,158.119305556,24
GEF,AGEV,Geva Airport,Liangia,SB,-7.575829982757568,156.5970001220703,
AGG,,Angoram Airport,Angoram,PG,-4.057077,144.073841,75
AKS,AGGA,Gwaunaru'u Airport,Auki,SB,-8.70257,160.682007,5
BNY,AGGB,Bellona/Anua Airport,Anua,SB,-11.302222222200001,159.798333333,60
CHY,AGGC,Choiseul Bay Airport,Choiseul Bay,SB,-6.711944,156.396111,
BAS,AGGE,Ballalae Airport,Ballalae,SB,-6.990745,155.886656,5
FRE,AGGF,Fera/Maringe Airport,Fera Island,SB,-8.1075,159.576996,
HIR,AGGH,Honiara International Airport,Honiara,SB,-9.428,160.054993,28
MBU,AGGI,Babanakira Airport,Mbambanakira,SB,-9.7475,159.839005,
AVU,AGGJ,Avu Avu Airport,Avu Avu,SB,-9.868333,160.410556,25
IRA,AGGK,Ngorangora Airport,Kirakira,SB,-10.449700355500001,161.897994995,54
SCZ,AGGL,Santa Cruz/Graciosa Bay/Luova Airport,Santa Cruz/Graciosa Bay/Luova,SB,-10.7203,165.794998,18
MUA,AGGM,Munda Airport,Munda,SB,-8.32797,157.263,10
GZO,AGGN,Nusatupe Airport,Gizo,SB,-8.09778022766,156.863998413,13
MNY,AGGO,Mono Airport,Stirling Island,SB,-7.416940212249756,155.56500244140625,
PRS,AGGP,Parasi Airport,Parasi,SB,-9.641670227050781,161.4250030517578,
RNL,AGGR,Rennell/Tingoa Airport,Rennell Island,SB,-11.55,160.062778,
EGM,AGGS,Sege Airport,Sege,SB,-8.57889,157.876007,
NNB,AGGT,Santa Ana Airport,Santa Ana Island,SB,-10.847994,162.454108,3
RUS,AGGU,Marau Airport,Marau,SB,-9.861669540409999,160.824996948,
VAO,AGGV,Suavanao Airport,Suavanao,SB,-7.58556,158.731003,
XYA,AGGY,Yandina Airport,Yandina,SB,-9.092816,159.21841,60
,AGIN,Isuna Heliport,Veravaulo,SB,-9.805809,159.962722,26
AGK,,Kagua Airport,Kagua,PG,-6.396388888890001,143.853611111,5350
KGE,AGKG,Kaghau Airport,Kagau Island,SB,-7.3305,157.585,30
KUE,AGKU,Kukudu Airport,Kolombangara Island,SB,-8.0262,156.94783,32
KWS,AGKW,Kwailabesi Airport,Kwailabesi,SB,-8.360508,160.775127,52
LLM,AGLM,Lomlom Airport,Lomlom,SB,-10.296828,166.327322,55
NAZ,AGNA,Nana Airport,Star Harbor,SB,-10.6758,162.2049,60
MHM,AGOB,Manaoba Airport,Manaoba,SB,-8.325008,160.80051,14
GTA,AGOK,Gatokae Aerodrome,Gatokae,SB,-8.738358,158.202836,70
RIN,AGRC,Ringi Cove Airport,Ringi Cove,SB,-8.12639045715332,157.14300537109375,
RBV,AGRM,Ramata Airport,Ramata,SB,-8.168060302734375,157.64300537109375,
TLG,AGTI,Tulaghi Heliport,Tulaghi Island,SB,-9.108,160.149166667,3
AHY,,Ambatolhy Airport,Ambatolahy,MG,-20.015833333299998,45.535,340
AIC,,Ailinglaplap Airok Airport,Bigatyelang Island,MH,7.279422,168.8257,16
CEX,,Chena Hot Springs Airport,Chena Hot Springs,US,65.0518035889,-146.04699707,1195
SOL,,Solomon State Field,Solomon,US,64.5605,-164.4457,25
HED,,Herendeen Bay Airport,Herendeen Bay,US,55.802346,-160.901346,20
TWE,,Taylor Airport,Taylor,US,65.6792984009,-164.798995972,440
KTH,,Tikchik Lodge Seaplane Base,Tikchik,US,59.9631996155,-158.477005005,304
NKI,,Naukati Bay Seaplane Base,Tuxekan Island,US,55.849602,-133.227994,
CDL,,Candle 2 Airport,Candle,US,65.907699585,-161.925994873,15
AOS,,Amook Bay Seaplane Base,Amook Bay,US,57.4715003967,-153.815002441,
BSW,,Boswell Bay Airport,Boswell Bay,US,60.4230995178,-146.145996094,230
AKM,,Zakuoma Airport,ZaKouma,TD,10.8902777778,19.8172222222,1370
ALZ,,Alitak Seaplane Base,Lazy Bay,US,56.897294,-154.249692,
YUK,UDCK,Syunik Airport,Kapan,AM,39.202272,46.455204,2308
AME,,Alto Molocue Airport,Alto Molocue,MZ,-15.6102777778,37.6813888889,1950
AMY,FMMB,Ambatomainty Airport,,MG,-17.686667,45.623889,1025
INU,ANYN,Nauru International Airport,Yaren District,NR,-0.547458,166.919006,22
ANZ,,Angus Downs Airport,Angus Downs Station,AU,-25.0325,132.2748,1724
CTV,,Catoca Airport,Saurimo,AO,-9.431359,20.311557,3498
ANL,,Andulo Airport,Andulo,AO,-11.4723,16.710899,
,FNLM,Lumbala Airstrip,Lumbala,AO,-12.638947,22.589028,3510
,FNNL,Huambo Airport,Huambo,AO,-12.786306,15.774528,5443
CNZ,,Cangamba Airport,Cangamba,AO,-13.7106,19.861099,3894
DRC,,Dirico Airport,Dirico,AO,-17.981924,20.768061,3504
NDF,,N'dalatando Airport,N'dalatando,AO,-9.280378,14.982432,2684
AOB,,Annanberg Airport,,PG,-4.90416666667,144.635833333,130
AOD,,Abou-Deïa Airport,Abou-Deïa,TD,11.4773,19.2874,1592
APP,,Asapa Airport,,PG,-8.979167,148.103611,1930
AQY,,Girdwood-Alyeska Airport,Girdwood,US,60.968774,-149.119792,150
QRF,,Bragado Airport,Bragado,AR,-35.145811,-60.480294,196
CVI,,Caleta Olivia Airport,Caleta Olivia,AR,-46.37428,-67.59409,37
CNT,,Charata Airport,Charata,AR,-27.2164,-61.2103,318
VGS,,General Villegas Airport,General Villegas,AR,-34.995728,-62.999725,383
LMD,,Los Menucos Airport,Los Menucos,AR,-40.817699,-68.074699,2571
VCF,,Valcheta Airport,Valcheta,AR,-40.700001,-66.150002,629
CPG,,Carmen de Patagones Airport,Carmen de Patagones,AR,-40.7781,-62.9803,131
ARP,,Aragip Airport,,PG,-9.88333333333,149.483333333,1750
ASZ,,Asirim Airport,,PG,-6.009722222220001,150.368611111,1050
,LOAL,Pöchlarn-Wörth Heliport,Pöchlarn-Wörth,AT,48.214386,15.255579,709
,LOAE,Eisenstadt Heliport,Eisenstadt,AT,47.84677,16.51345,748
,LOAF,Baden Hospital Helipad,Baden,AT,48.000612,16.255796,733
,LOAH,Horn Heliport,Horn,AT,48.669249,15.660705,1012
,LOAK,Krems University Hospital Helipad,Krems,AT,48.412753,15.615224,647
,LOAM,Wien-Meidling Heliport,Vienna,AT,48.173743,16.322633,737
LYT,YLTT,Lady Elliot Island Airstrip,Lady Elliot Island,AU,-24.1129,152.7156,20
GYZ,,Gruyere Airport,Cosmo Newbery,AU,-28.034548,123.81506,1542
,YPAS,Packsaddle Airport,Packsaddle,AU,-30.29424,142.13758,342
,YMRO,Moora Airport,Moora,AU,-30.684896,115.982059,659
,YOKH,Oakden Hills Airport,Oakden Hills,AU,-31.66598,137.0361,308
,YWIR,Wirraminna Airport,Wirraminna,AU,-31.19277,136.21988,446
,YJBO,JDandBoo,Boisdale,AU,-37.85774,146.91748,380
,YWSN,Woodstock Station,,AU,-19.358723,142.756948,
AGW,,Agnew Airport,Agnew,AU,-12.1456,142.149369,160
AYD,,Alroy Downs Airport,Alroy Downs,AU,-19.2908,136.078995,711
BYX,,Baniyala Airport,Baniyala,AU,-13.1981,136.227005,20
COB,,Coolibah Airport,Coolibah,AU,-15.548299789428711,130.96200561523438,
CRJ,,Coorabie Airport,Coorabie,AU,-31.894399642944336,132.29600524902344,
CRY,,Carlton Hill Airport,Carlton Hill,AU,-15.501899719238281,128.53399658203125,
CSD,,Cresswell Downs Airport,Cresswell Downs,AU,-17.947999954223633,135.91600036621094,
DYM,,Diamantina Lakes Airport,Diamantina Lakes,AU,-23.761699676513672,141.14500427246094,
HIS,,Hayman Island Resort Seaplane Base,Hayman Island,AU,-20.059999465942383,148.88099670410156,
HLV,,Helenvale Airport,Helenvale,AU,-15.685799598693848,145.21499633789062,
KBD,,Kimberley Downs Airport,Kimberley Downs,AU,-17.39780044555664,124.3550033569336,
KGR,,Kulgera Airport,Ghan,AU,-25.8428,133.292007,
PEP,,Peppimenarti Airport,Peppimenarti,AU,-14.1442,130.091003,83
RDA,,Rockhampton Downs Airport,Rockhampton Downs,AU,-18.95330047607422,135.2010040283203,
SSK,,Sturt Creek Airport,Sturt Creek,AU,-19.166400909423828,128.1739959716797,
SWB,,Shaw River Airport,Shaw River,AU,-21.510299682617188,119.36199951171875,
TWP,,Torwood Airport,Torwood,AU,-17.363300323486328,143.75,
ZVG,,Springvale Airport,Springvale,AU,-17.7869,127.669998,
AWR,,Awar Airport (unusable),Awar,PG,-4.122278,144.853292,35
AXF,ZBAL,Alxa Left Banner Bayanhot Airport,Bayanhot,CN,38.74831,105.58858,4560
AXO,,Pantar Kabir Airport,Kabir,ID,-8.244832,124.219108,18
AMF,AYAA,Ama Airport,,PG,-4.10111111111,141.67,145
UAE,AYAE,Mount Aue Airport,Aue,PG,-6.229978,144.664181,4250
AFR,AYAF,Afore Airstrip,Afore,PG,-9.13867,148.390701,2500
AUP,AYAG,Agaun Airport,Agaun,PG,-9.927715,149.389951,3200
ATP,AYAI,Aitape Airport,Aitape,PG,-3.143611,142.346806,10
AIH,AYAK,Aiambak Airport,Aiambak,PG,-7.342777777779999,141.2675,90
AMU,AYAM,Amanab Airport,Amanab,PG,-3.586,141.214333333,1307
ADC,AYAN,Andakombe Airport,Andekombe,PG,-7.13722222222,145.744722222,3600
AIE,AYAO,Aiome Airport,Aiome,PG,-5.145699978,144.7307003,350
KPM,AYAQ,Kompiam Airport,,PG,-5.38166666667,143.924722222,5100
AUJ,AYAT,Ambunti Airport,Ambunti,PG,-4.21566666667,142.823166667,50
,AYAU,Arou Airstrip,Arou,PG,-5.4951,142.5137,4830
AWB,AYAW,Awaba Airport,Awaba,PG,-8.013414,142.752099,32
AEK,AYAX,Aseki Airport,Aseki,PG,-7.350805,146.193994,4106
AYU,AYAY,Aiyura Airport,Aiyura Valley,PG,-6.33805555556,145.904166667,5355
VMU,AYBA,Baimuru Airport,Baimuru,PG,-7.496955,144.821756,27
BCP,AYBC,Bambu Airport,Bambu,PG,-5.863611111110001,146.4925,6790
BNM,AYBD,Bodinumu Airport,Bodinumu,PG,-9.107777777779999,147.666722222,3700
BMZ,AYBF,Bamu Airport,Bamu,PG,-7.8485,143.2433,50
BDZ,AYBG,Baindoung Airport,,PG,-6.34722222222,146.942222222,4400
BSP,AYBH,Bensbach Airport,Bensbach,PG,-8.85805555556,141.259444444,30
BWP,AYBI,Bewani Airport,Bewani,PG,-3.0216666666700003,141.165277778,550
BUA,AYBK,Buka Airport,Buka Island,PG,-5.422299,154.672698,11
BAA,AYBL,Bialla Airport,"Bialla, Matalilu, Ewase",PG,-5.3305602073700005,151.007995605,51
OPU,AYBM,Balimo Airport,Balimo,PG,-8.05000019073,142.932998657,51
BMH,AYBO,Bomai Airport,Bomai,PG,-6.37316666667,144.637,3300
BPD,AYBP,Bapi Airstrip,Bapi,PG,-7.743611111110001,147.020555556,2930
BPK,AYBQ,Biangabip Airport,Biangabip,PG,-5.526389,141.744583,1069
BRP,AYBR,Biaru Airport,Biaru,PG,-7.6693,146.7594,4900
,AYBS,Begesin Airstrip,Begesin,PG,-5.388248,145.447394,980
,AYBT,Batri Airstrip,Batri,PG,-6.551861,143.943905,4510
BUL,AYBU,Bulolo Airport,Bulolo,PG,-7.216286671410001,146.649541855,2240
,AYBY,Wuyabo Airstrip,Wuyabo,PG,-6.838474,145.873207,6400
XBN,AYBZ,Biniguni Airport,Biniguni,PG,-9.6425,149.303889,215
CVB,AYCB,Chungribu Airport,Chungribu,PG,-4.80662,144.714996,108
CGC,AYCG,Cape Gloucester Airport,Cape Gloucester,PG,-5.455231,148.422289,78
CMU,AYCH,Chimbu Airport,Kundiawa,PG,-6.024290084838867,144.9709930419922,4974
SQT,AYCS,China Strait Airstrip,Samarai Island,PG,-10.5627777778,150.690694444,10
DBP,AYDB,Debepare Airport,Debepare,PG,-6.30861111111,141.905555556,360
DER,AYDE,Derim Airport,Derim,PG,-6.14472222222,147.107222222,4850
BNT,AYDI,Bundi Airport,Bundi,PG,-5.742222222220001,145.2275,4400
MDM,AYDK,Munduku Airport,Munduku,PG,-4.6204,143.4516,100
KPF,AYDL,Kondobol Airport,Kondobol,PG,-8.5336,142.5049,132
DNU,AYDN,Dinangat Airport,Dinangat,PG,-6.1546,146.6772,5309
DOI,AYDO,Doini Airport,Castori Islets,PG,-10.7009,150.7218,31
DOO,AYDR,Dorobisoro Airport,Dorobisoro,PG,-9.461855,147.920907,1767
DAU,AYDU,Daru Airport,Daru,PG,-9.08676,143.207993,20
KRU,AYEA,Kerau Airport,Gunim,PG,-8.271612,147.071899,7360
EMS,AYEB,Embessa Airport,Embessa,PG,-9.447,148.7628,131
XYR,AYED,Edwaki Airport,Yellow River Mission,PG,-3.883986,141.792234,190
EMI,AYEE,Emirau Airport,Emirau Island,PG,-1.653949991,149.9757667,172
EFG,AYEF,Efogi Airport,Efogi,PG,-9.15380555556,147.659805556,3900
MHY,AYEH,Morehead Airport,Morehead,PG,-8.71411111111,141.644444444,100
EPT,AYEL,Eliptamin Airport,Eliptamin,PG,-5.0412,141.6779,4825
EGA,AYEN,Engati Airstrip,Engati,PG,-6.9179,146.1053,3715
EMO,AYEO,Emo River Airstrip,Emo Mission,PG,-9.1234,148.0415,2240
ERU,AYER,Erume Airport,Erume,PG,-8.2538,146.9747,6690
MFZ,,Meselia Airport,Demgulu,PG,-6.1364,149.1183,180
BOT,AYET,Bosset Airport,Bosset,PG,-7.237257,141.1063222,80
ERE,AYEV,Erave Airport,Erave,PG,-6.60646315446,143.900213242,3650
SWE,AYEW,Siwea Airport,Siwea,PG,-6.284181,147.582371,5960
FNE,AYFA,Fane Airport,Fane Mission,PG,-8.54927777778,147.085833333,4500
FRQ,,Feramin Airport,Feramin,PG,-5.208,141.6988,4655
,AYFF,Faia Airport,,PG,-7.160353,143.531317,80
FIN,AYFI,Finschhafen Airport,Buki,PG,-6.621750109,147.85405,60
FAQ,AYFR,Frieda River Airport,Frieda River,PG,-4.610468,141.960138,217
FUM,AYFU,Fuma Airport,Fuma,PG,-6.3933,142.4408,466
GKA,AYGA,Goroka Airport,Goronka,PG,-6.081689834590001,145.391998291,5282
GEW,AYGC,Gewoia Airport,Gewoia,PG,-9.2263,148.4949,340
GUG,AYGF,Guari Airport,Guari,PG,-8.1286,146.8722,6450
GRL,AYGG,Garasa Airport,Au,PG,-7.980713,147.213461,2539
GAR,AYGI,Garaina Airport,Garaina,PG,-7.875625,147.141266,2497
GAZ,AYGJ,Guasopa Airport,Woodlark (Muyua) Island,PG,-9.225918,152.944352,10
GOE,AYGL,Gonaili Airport,Gonaili,PG,-5.527716614,151.5733333,40
GUR,AYGN,Gurney Airport,Gurney,PG,-10.3114995956,150.333999634,88
GAP,AYGP,Gusap Airport,Gusap,PG,-6.053196,145.959047,1504
PNP,AYGR,Girua Airport,Popondetta,PG,-8.80453968048,148.309005737,311
GBC,AYGS,Gasuke Airport,Gasuke,PG,-6.1028,141.7393,157
GMI,AYGT,Gasmata Island Airport,Gasmata Island,PG,-6.27111005783,150.330993652,23
AKG,AYGU,Anguganak Airport,Anguganak,PG,-3.560504,142.217307,937
GVI,AYGV,Green River Airport,Green River,PG,-3.9022428989400004,141.170516968,281
GOC,AYGX,Gora Airstrip,Gora,PG,-9.0021,148.2364,2497
HBD,AYHB,Habi Airport,Habi,PG,-6.32,142.4893,993
HNI,AYHE,Heiweni Airport,Heiweni,PG,-7.4223,146.4276,3480
HYF,AYHF,Hayfields Airport,Bainyik,PG,-3.69838,143.057902,466
HNN,AYHH,Honinabi Airport,Honinabi,PG,-6.2457,142.1771,452
HKN,AYHK,Hoskins Airport,Kimbe,PG,-5.463846,150.407327,66
HIT,AYHO,Haivaro Airport,Haivaro,PG,-6.9406,143.059,180
HWA,AYHU,Hawabango Airport,Hawabango,PG,-7.392994,146.003487,4563
IIS,AYIA,Nissan Island Airport,Nissan Island,PG,-4.49972009659,154.225997925,52
IDN,AYID,Indagen Airport,Indagen,PG,-6.22663,147.244,5788
IMN,AYII,Imane Airport,Imane,PG,-6.7524,146.1072,3860
KGM,AYIM,Kungim Airport,Kungim,PG,-5.671,141.03,349
IMD,AYIO,Imonda Airport,Imonda,PG,-3.328,141.1573,990
KIE,AYIQ,Aropa Airport,Kieta,PG,-6.305417,155.728139,20
IAL,,Ialibu Airport,Ialibu,PG,-6.2782,143.9944,6736
WSA,AYIW,Wasua Airport,Wasua,PG,-8.2836,142.8697,45
WIU,AYIX,Witu Airport,Garove Island,PG,-4.689522,149.440112,25
MPX,AYIY,Miyanmin Airport,Miyanmin,PG,-4.903055555560001,141.620833333,2500
KGH,AYJO,Yongai Airport,Yongai,PG,-8.5289,147.4603,6500
JOP,AYJS,Josephstaal Airport,Josephstaal,PG,-4.74708333333,145.007083333,250
LSA,AYKA,Losuia Airport,Losuia,PG,-8.505820274353027,151.08099365234375,27
KBM,AYKB,Kabwum,,PG,-6.15547222222,147.191472222,4450
KDR,AYKC,Kandrian Airport,Kandrian,PG,-6.19217,149.54783,280
KMF,AYKD,Kamina Airport,Hoieti,PG,-7.64925,145.956944444,2157
KPA,AYKG,Kopiago Airport,Kopiago,PG,-5.3883,142.4977,4445
KAQ,AYKH,Kamulai Airport,Kamulai Mission,PG,-8.150694444440001,146.834,5800
UNG,AYKI,Kiunga Airport,Kiunga,PG,-6.1257100105285645,141.28199768066406,88
KNE,AYKJ,Kanainj Airport,Kanainj,PG,-5.2903,144.7072,4064
KRI,AYKK,Kikori Airport,Kikori,PG,-7.42438,144.250076,50
KMA,AYKM,Kerema Airport,Kerema,PG,-7.96361017227,145.770996094,10
KKD,AYKO,Kokoda Airport,Kokoda,PG,-8.884679,147.730957,1240
KGW,AYKQ,Kagi Airport,Kagi,PG,-9.135916666670001,147.669444444,4200
KRX,AYKR,Kar Kar Airport,Kar Kar Island,PG,-4.557,145.9404,130
KZF,AYKT,Kaintiba Airport,Kaintiba,PG,-7.50025,146.033833333,2050
KUQ,AYKU,Kuri Airport,Kuri,PG,-7.135083,143.276111,35
KVG,AYKV,Kavieng Airport,Kavieng,PG,-2.57940006256,150.807998657,7
KWO,AYKW,Kawito Airport,Kawito,PG,-7.977006912229999,142.823577881,72
LNV,AYKY,Londolovit Airport,Londolovit,PG,-3.04361009598,152.628997803,167
LAB,AYLB,Lab Lab Airport,Lab Lab Mission,PG,-5.7204,148.0566,160
KEG,AYLG,Keglsugl Airport,Denglagu Mission,PG,-5.83277777778,145.097222222,8400
KII,AYLI,Kibuli Airstrip,Kibuli,PG,-9.006528,142.698056,54
LGN,AYLL,Linga Linga Airport,Linga Linga,PG,-5.5319444444400006,149.734166667,17
LNM,AYLN,Langimar Airport,,PG,-7.22313888889,146.227083333,5127
LWI,AYLO,Lowai Airport,Lowai,PG,-6.3344,146.6458,2900
LPN,AYLP,Leron Plains Airport,Leron Plains,PG,-6.3917,146.3434,680
LNG,AYLS,Lese Airport,Lese,PG,-8.2799,146.2765,40
LNC,AYLT,Lengbati Airport,,PG,-6.384611111110001,147.368638889,5750
LMI,AYLU,Lumi Airport,Lumi,PG,-3.47683951134,142.041292191,1750
LSJ,AYLX,Long Island Airport,Long Island,PG,-5.3604,147.0177,116
AYM,,Yas Island Seaplane Base,Abu Dhabi,AE,24.467,54.6103,0
MRM,AYMA,Manari Airport,Manari,PG,-9.1908,147.6219,2630
OBM,AYMB,Morobe Airport,Morobe,PG,-7.74,147.59,8
MYX,AYMC,Menyamya Airport,Menyamya,PG,-7.21166666667,146.019361111,3880
MAG,AYMD,Madang Airport,Madang,PG,-5.20707988739,145.789001465,20
HGU,AYMH,Mount Hagen Kagamuga Airport,Mount Hagen,PG,-5.828212,144.299412,5388
MXK,AYMI,Mindik Airport,Mindik,PG,-6.47166666667,147.441138889,4200
MPG,AYMJ,Makini Airport,Makini,PG,-6.532222222220001,147.651166667,2530
GUV,AYML,Mougulu Airport,Mougulu,PG,-6.280859,142.420775,825
MDU,AYMN,Mendi Airport,Mendi,PG,-6.14774,143.656998,5680
MAS,AYMO,Momote Airport,Manus Island,PG,-2.06189,147.423996,12
MLQ,AYMP,Malalaua Airport,Malalaua,PG,-8.07138888889,146.155472222,20
MQO,AYMQ,Malam Airport,Malam,PG,-8.70916666667,142.649722222,126
MXH,AYMR,Moro Airport,Moro,PG,-6.36332988739,143.238006592,2740
MIS,AYMS,Misima Island Airport,Misima Island,PG,-10.689200401299999,152.837997437,26
MKN,AYMV,Malekolon Airport,Babase Island,PG,-4.02343055556,153.657277778,5
MWG,AYMW,Marawaka Airport,Marawaka,PG,-6.9736,145.8849,6050
MPU,AYMZ,Mapua(Mabua) Airport,Tatau Island,PG,-2.81138888889,151.991111111,40
NKN,AYNA,Nankina Airport,Gwarawon,PG,-5.837,146.4533,5800
KEX,AYNB,Kanabea Airport,Kanabea,PG,-7.538888888890001,145.905,4288
NDN,AYNC,Nadunumu Airport,Nadunumu,PG,-9.14355555556,147.68425,5100
AUI,AYND,Aua Island Airport,Aua Island,PG,-1.46055555556,143.064722222,4
GBF,AYNE,Negarbo(Negabo) Airport,Negarbo,PG,-6.567778,144.703058,4500
MFO,,Manguna Airport,Manguna,PG,-5.577778,151.792333,187
NUG,AYNI,Nuguria Airstrip,Nuguria Island,PG,-3.4075,154.7383,30
NDI,AYNJ,Namudi Airport,Namudi,PG,-9.47375,148.329416667,1044
KSB,AYNM,Kasonombe Airport,Kasonombe,PG,-6.3819,146.9859,5800
KDP,AYNN,Kandep Airport,Kandep,PG,-5.84061111111,143.507222222,7710
NMN,AYNO,Nomane Airport,Namane,PG,-6.32183,145.070667,6032
BXZ,AYNS,Bunsil Airport,Bunsil - Umboi Island,PG,-5.7243,147.8667,201
UKU,AYNU,Nuku Airport,Nuku,PG,-3.676651,142.484334,870
ATN,AYNX,Namatanai Airport,Namatanai,PG,-3.6695,152.438,150
NBA,AYNY,Nambaiyufa Airport,Nambaiyufa,PG,-6.2412,145.2424,5550
LAE,AYNZ,Nadzab Airport,Lae,PG,-6.569803,146.725977,239
OBX,AYOB,Obo Airport,Obo,PG,-7.590622421369999,141.324262619,29
KGB,AYOE,Konge Airport,Konge,PG,-6.2239,147.2152,5900
OKV,AYOF,Okao Airport,Okao,PG,-5.55666666667,141.032777778,450
OGE,AYOG,Ogeranang Airport,,PG,-6.46675,147.364166667,5850
OKP,AYOJ,Oksapmin Airport,Oksapmin,PG,-5.2261,142.2259,5140
HOC,AYOK,Komako Airport,Komako,PG,-7.3984,145.8827,3960
KQL,AYOL,Kol Airport,Kol,PG,-5.73116666667,144.846,5350
OSE,AYOM,Omora Airport,Omora,PG,-7.82777777778,147.080638889,2540
KOM,AYOO,Komo-Manda Airport,Komo,PG,-6.0682,142.8598,5057
KSP,AYOP,Kosipe Airport,Kosipe Mission,PG,-8.450716,147.209195,6350
KCJ,AYOQ,Komaio Airport,Komaio,PG,-7.2714,143.5952,28
OLQ,AYOV,Olsobip Airport,Olsobip,PG,-5.3897222222200005,141.515277778,1500
KDE,AYOW,Koroba Airport,Koroba,PG,-5.6952,142.7441,5638
OPB,,Open Bay Airport,Maitanakunai,PG,-4.794727,151.696195,33
PLE,AYPB,Paiela Airport,Paiela,PG,-5.372407,142.975774,6100
PGB,AYPC,Pangoa Airport,Pangoa,PG,-7.0226,141.5605,60
PDI,AYPD,Pindiu Airport,Pindiu,PG,-6.445138888890001,147.515833333,2995
APR,AYPE,April River Airport,April River,PG,-4.67666666667,142.540138889,220
PGN,AYPG,Pangia Airport,Pangia,PG,-6.386,144.1084,5340
PMP,AYPJ,Pimaga Airport,Pimaga,PG,-6.49916666667,143.510277778,2745
MPF,AYPO,Mapoda Airport,Mapoda,PG,-7.979,143.1694,45
PMN,AYPQ,Pumani Airport,Pumani,PG,-9.7469,149.4766,427
WLU,,Walluanda Airport,Puri,PG,-6.475161,143.987222,6050
POM,AYPY,Port Moresby Jacksons International Airport,Port Moresby,PG,-9.443380355834961,147.22000122070312,146
KRJ,AYQA,Karawari Airstrip,Amboin,PG,-4.59666666667,143.5225,70
TLP,AYQL,Tumolbil Airport,Tumolbil,PG,-4.7748,141.0133,3590
SPH,AYQO,Sopu Airport,Sopu,PG,-8.3038,147.1659,6580
ONB,AYQQ,Ononge Airport,Onange Mission,PG,-8.67436111111,147.262416667,5800
SXA,AYQS,Sialum Airport,Sialum,PG,-6.0908,147.5955,170
KIQ,AYRA,Kira Airport,Kira,PG,-8.065111111110001,147.332027778,1700
RBP,AYRE,Raba Raba Airport,Rabaraba,PG,-9.97111111111,149.832222222,170
RMN,AYRG,Rumginae Airport,,PG,-5.89722222222,141.271666667,160
KMR,AYRI,Karimui Airport,Karimui,PG,-6.4921,144.823,3640
RKU,AYRK,Kairuku Airport,Yule Island,PG,-8.817000054,146.5243833,45
MWI,AYRM,Maramuni Airport,Maramuni,PG,-5.13,143.4829,5160
KOR,AYRO,Kakoro(Koroko) Airstrip,Kakoro,PG,-7.8346666666700004,146.5335,230
MRH,,May River Airstrip,May River,PG,-4.3615,141.785,107
SBE,AYSA,Suabi Airport,,PG,-6.10444444444,142.278333333,465
SDI,AYSD,Saidor Airport,Saidor,PG,-5.62713888889,146.462777778,83
NIS,AYSE,Simberi Airport,Simberi Island,PG,-2.66222222222,151.997777778,10
SFU,AYSF,Safia Airport,Safia,PG,-9.59305555556,148.636111111,430
SIL,AYSG,Sila Airport,Sila Mission,PG,-9.07355555556,148.38925,2230
SBV,AYSH,Sabah Airport,Sabah,PG,-5.5765,155.0489,10
SIM,AYSJ,Simbai Airport,Simbai,PG,-5.278611111110001,144.544722222,5804
SGK,AYSK,Sengapi Airstrip,Sengapi,PG,-5.12583333333,144.323611111,6242
SXH,AYSL,Sehulea Airport,Sehulea,PG,-9.96452777778,151.161861111,30
SBC,AYSO,Selbang Airport,Selbang,PG,-5.315,141.752,5130
SMH,AYSP,Sapmanga Airport,Sapmanga,PG,-6.075277777779999,146.811111111,2912
SPV,,Sepik Plains Airport,Sepik Plains,PG,-3.8821,143.6734,230
TDS,AYSS,Sasereme Airport,Sasereme,PG,-7.6217,142.868,121
SKC,AYSU,Suki Airport,Suki,PG,-8.0466,141.7222,24
SXW,AYSV,Sauren Airport,Sauren,PG,-5.9701,148.8543,46
SWG,AYSW,Satwag Airport,Satwag,PG,-6.13955555556,147.279166667,4185
MBV,AYSX,Masa Airport,Masa,PG,-6.345,147.591,5900
TIZ,AYTA,Tari Airport,Tari,PG,-5.845,142.947998,5500
TBG,AYTB,Tabubil Airport,Tabubil,PG,-5.280471,141.227576,1570
TFM,AYTE,Telefomin Airport,Telefomin,PG,-5.12608,141.641922,4950
TDB,AYTF,Tetebedi Airport,Tetebedi,PG,-9.1586,148.0686,3365
TGL,AYTG,Tagula Airport,Sudest Island,PG,-11.3311111111,153.202916667,59
TFB,AYTH,Tifalmin Airport,Tifalmin,PG,-5.117249,141.418076,4735
TPI,AYTI,Tapini Airport,Tapini,PG,-8.35666666667,146.989166667,3100
RAB,AYTK,Tokua Airport,Kokopo,PG,-4.34046,152.380005,49
TKW,AYTN,Tekin Airport,Tekin,PG,-5.243667,142.165194,5785
KDQ,AYTO,Kamberatoro Airport,Kamberatoro Mission,PG,-3.600556,141.051667,1350
TEP,AYTP,Tep Tep Airport,Teptep,PG,-5.9553,146.5595,7011
TBQ,AYTR,Tarabo Airport,Tarabo,PG,-6.46666666667,145.532222222,6100
TSW,AYTS,Tsewi Airport,Tsewi,PG,-7.0695,146.1272,4185
TRJ,AYTT,Tarakbits Airport,Tarakbits,PG,-5.614,141.0421,281
TFI,AYTU,Tufi Airport,Tufi,PG,-9.07595443726,149.319839478,85
TBE,AYTV,Timbunke Airport,Timbunke,PG,-4.196633,143.519222,24
TWY,AYTW,Tawa Airport,Tawa,PG,-7.4463,146.1067,5020
TEO,AYTY,Terapo Airport,Terapo Mission,PG,-8.16972222222,146.194444444,15
TKB,AYTZ,Tekadu Airport,Tekadu,PG,-7.6808,146.5503,1310
UMC,AYUC,Umba Airport,Umba,PG,-7.0214,145.966,5950
URU,AYUE,Uroubi Airport,Uroubi,PG,-9.5162,148.5591,481
UBI,AYUI,Buin Airport,Buin,PG,-6.72916666667,155.683333333,230
AUV,AYUM,Aumo Airport,Aumo,PG,-5.731111111110001,148.445277778,450
GLP,AYUP,Gulgubip Airport,Gulgubip,PG,-5.2808,141.5411,4900
UPR,AYUR,Upiara Airport,Upiara,PG,-8.5411,142.6503,52
KUX,AYUY,Kuyol Airport,,PG,-5.372361111110001,141.623888889,3290
UVO,AYUZ,Uvol Airport,Uvol,PG,-6.0178,150.9557,15
TLW,AYVL,Talasea Airport,Talasea,PG,-5.2726,150.0089,44
TCJ,AYVM,Torembi Airport,Torembi,PG,-4.0165,143.1329,90
VAI,AYVN,Vanimo Airport,Vanimo,PG,-2.6926,141.3028,10
TON,AYVO,Tonu Airport,Tonu,PG,-6.6552,155.4326,300
WUV,AYVW,Wuvulu Island Airport,Wuvulu Island,PG,-1.73611111111,142.836666667,16
WAO,AYWB,Wabo Airport,Wabo,PG,-6.98944444444,145.075111111,132
WTT,AYWC,Wantoat Airport,Wantoat,PG,-6.1325,146.467777778,3900
WBM,AYWD,Wapenamanda Airport,Wapenamanda,PG,-5.635293,143.892231,5889
WAJ,AYWF,Wawoi Falls Airport,Wavoi Falls,PG,-6.9523,142.6557,370
AGL,AYWG,Wanigela Airport,Wanigela,PG,-9.3375,149.155556,53
WNU,AYWH,Wanuma Airport,Wanuma,PG,-4.8961,145.3213,2260
WBC,AYWJ,Wapolu Airport,Wapolu,PG,-9.3376,150.5093,45
WWK,AYWK,Wewak International Airport,Wewak,PG,-3.58383011818,143.669006348,19
WOA,AYWO,Wonenara Airport,Wonenara,PG,-6.796861111110001,145.891944444,5028
WKN,AYWQ,Wakunai Airport,Wakunai,PG,-5.8603,155.2223,20
WSU,AYWS,Wasu Airport,Wasu,PG,-5.96170944919,147.19822526,34
WTP,AYWT,Woitape Airport,Fatima Mission,PG,-8.545833,147.2525,5200
WUG,AYWU,Wau Airport,Wau,PG,-7.345556,146.718611,3600
YVD,AYXE,Yeva Airport,Yeva,PG,-7.548,146.188,4510
SMJ,AYXI,Sim Airport,Sim,PG,-7.75,146.9273,5460
TLO,AYXO,Tol Airport,Tol,PG,-4.98083019257,152.009994507,49
WPM,AYXP,Wipim Airport,Wipim,PG,-8.78822,142.882004,173
WEP,AYXW,Weam Airport,Weam,PG,-8.6184,141.1381,50
AYY,,Arugam Bay SPB,Pottuvil,LK,6.86,81.82388888890002,
KYX,AYYE,Yalumet Airport,Yalumet,PG,-6.09,147.0117,2600
YEQ,AYYK,Yenkis(Yankisa) Airport,,PG,-5.10972222222,143.917666667,3692
TCK,AYYL,Tinboli Airport,Tinboli,PG,-4.0949,143.3838,59
LNF,AYYM,Munbil Airport,,PG,-4.855941,141.220165,3126
RAX,AYYO,Oram Airport,,PG,-9.632916666669997,148.048055556,3500
KPE,AYYP,Yapsiei Airport,,PG,-4.6280555555600005,141.094166667,600
KSX,AYYR,Yasuru Airport,Yasuru,PG,-6.6015,146.1813,1520
ZEN,AYZA,Zenag Airport,Zenag,PG,-6.9522222222200005,146.61625,3200
SWR,AYZI,Silur Airport,Silur Mission,PG,-4.5298888888899995,153.054444444,217
WUM,,Wasum Airport,Wasum,PG,-6.0491,149.337,175
SIZ,AYZN,Sissano Airport,Sissano,PG,-2.99944444444,142.0445,27
OSG,AYZS,Ossima Airport,Ossima,PG,-2.91555555556,141.297305556,205
ZXT,UBTT,Zabrat Airport,Zabrat,AZ,40.494884,49.977065,36
,UBBH,Khachmaz Airport,Khachmaz,AZ,41.459152,48.832635,62
,UBEI,Shaki Airport,Shaki,AZ,41.136553,47.1595,
,UBEN,Naftalan Airport,Naftalan,AZ,40.51592,46.829481,
,UBEY,Agjabedi Airport,Agjabedi,AZ,40.022291,47.44935,
,UBLL,Güzdək Military Airport,Lökbatan,AZ,40.347106,49.671321,
,UBBM,Hajigabul Kazı Magomed Airport,Hajigabul,AZ,40.03094,48.902764,
,UBBP,Pirallahı Heliport,Pirallahı,AZ,40.4182,50.35677,-85
,UBBC,Çilov Heliport,Çilov,AZ,40.325219,50.602082,-72
HAE,,Lava Falls Heliport,Supai Village,US,36.191600799599996,-113.092002869,1720
AZB,,Amazon Bay Airport,,PG,-10.2991666667,149.338333333,12
,LQCG,Ciljuge Sport Airfield,Bašigovci,BA,44.436094,18.686457,725
,LQBZ,Banja Luka Zalužani Airfield,Zalužani,BA,44.8482,17.222826,
BAJ,,Bali Airport,Unea Island,PG,-4.8833333333299995,149.133333333,90
BCW,,Benguera Island Airport,Benguera Island,MZ,-21.8533,35.438301,
BCZ,,Milyakburra Airport,Bickerton Island,AU,-13.780833333299999,136.201666667,85
,LBDM,Dve Mogili Airfield,Dve Mogili,BG,43.606541,25.89069,837
,LBBB,Belchinski Bani Airstrip,Belchinski Bani,BG,42.374713,23.392548,
,LBBL,Blagoevo Airfield,Blagoevo,BG,43.455488,26.431655,1185
,LBDR,Draganovtsi Airfield,Draganovtsi,BG,42.943042,25.169528,
,LBBR,Breznik Airfield,Pernik,BG,42.693305,22.896559,699
JAM,,Bezmer Air Base,Bezmer,BG,42.454899,26.3522,509
JEG,BGAA,Aasiaat Airport,Aasiaat,GL,68.721802,-52.784698,74
AOQ,,Aappilattoq Heliport,Aappilattoq,GL,72.88703,-55.596287,42
AGM,,Tasiilaq Heliport,Tasiilaq,GL,65.612296,-37.618335,24
LLU,,Alluitsup Paa Heliport,Alluitsup Paa,GL,60.46445,-45.56917,54
QUV,,Aappilattoq Heliport,Aappilattoq,GL,60.148357,-44.286916,30
JRK,,Arsuk Heliport,Arsuk,GL,61.176828,-48.419698,66
QUW,,Ammassivik Heliport,Ammassivik,GL,60.597376,-45.382445,71
QGQ,,Attu Heliport,Attu,GL,67.940663,-53.62187,32
UAK,BGBW,Narsarsuaq Airport,Narsarsuaq,GL,61.1605,-45.425999,112
JCH,BGCH,Qasigiannguit Heliport,Qasigiannguit,GL,68.822816,-51.173447,70
CNP,BGCO,Neerlerit Inaat Airport,Neerlerit Inaat,GL,70.743103,-22.650499,45
QFG,,Eqalugaarsuit Heliport,Eqalugaarsuit,GL,60.61972,-45.914062,9
QFN,,Narsarmijit Heliport,Narsarmijit,GL,60.004694,-44.656935,44
JGR,,Kangilinnguit Heliport,Kangilinnguit,GL,61.22896,-48.09698,101
GOH,BGGH,Nuuk Airport,Nuuk,GL,64.191066,-51.67914,283
JGO,,Qeqertarsuaq Heliport,Qeqertarsuaq,GL,69.251182,-53.514876,9
IKE,,Ikerasak Heliport,Ikerasak,GL,70.498145,-51.303084,66
QFI,,Iginniarfik Heliport,Iginniarfik,GL,68.147226,-53.173528,50
QRY,,Ikerassaarsuk Heliport,Ikerassaarsuk,GL,68.140881,-53.441459,165
XIQ,,Ilimanaq Heliport,Ilimanaq,GL,69.080915,-51.114315,52
IUI,,Innarsuit Heliport,Innarsuit,GL,73.199895,-56.010817,95
IOQ,,Isortoq Heliport,Isortoq,GL,65.547792,-38.976552,92
QJI,,Ikamiut Heliport,Ikamiut,GL,68.634253,-51.832262,49
JJU,,Qaqortoq Heliport,Qaqortoq,GL,60.715684,-46.029919,53
JAV,BGJN,Ilulissat Airport,Ilulissat,GL,69.243202,-51.057098,95
QPW,,Kangaatsiaq Heliport,Kangaatsiaq,GL,68.312657,-53.460208,17
KUS,BGKK,Kulusuk Airport,Kulusuk,GL,65.573601,-37.1236,117
KUZ,,Kuummiut Heliport,Kuummiut,GL,65.863935,-36.997919,89
KHQ,,Kullorsuaq Heliport,Kullorsuaq,GL,74.57805,-57.226828,148
KGQ,,Kangersuatsiaq Heliport,Kangersuatsiaq,GL,72.381092,-55.536586,112
QJE,,Kitsissuarsuit Heliport,Kitsissuarsuit,GL,68.857926,-53.123295,18
IOT,,Illorsuit Heliport,Illorsuit,GL,71.241944,-53.562877,154
JSU,BGMQ,Maniitsoq Airport,Maniitsoq,GL,65.412498,-52.9394,91
JNN,,Nanortalik Heliport,Nanortalik,GL,60.141884,-45.232977,17
JUU,,Nuugaatsiaq Heliport,Nuugaatsiaq,GL,71.538769,-53.205038,57
JNS,,Narsaq Heliport,Narsaq,GL,60.917283,-46.059923,83
NIQ,,Niaqornat Heliport,Niaqornat,GL,70.789385,-53.662945,10
NSQ,,Nuussuaq Heliport,Nuussuaq,GL,74.109853,-57.065037,184
JFR,BGPT,Paamiut Airport,Paamiut,GL,62.014736,-49.670937,120
PQT,,Qeqertaq Heliport,Qeqertaq,GL,69.995861,-51.300917,69
NAQ,BGQQ,Qaanaaq Airport,Qaanaaq,GL,77.488602,-69.388702,51
QJH,,Qassimiut Heliport,Qassimiut,GL,60.780959,-47.156249,29
OBY,,Ittoqqortoormiit Heliport,Ittoqqortoormiit,GL,70.488229,-21.97168,238
SFJ,BGSF,Kangerlussuaq Airport,Kangerlussuaq,GL,67.010446,-50.715294,165
SGG,BGSG,Sermiligaaq Heliport,Sermiligaaq,GL,65.90592,-36.378254,33
SRK,BGSI,Siorapaluk Heliport,Siorapaluk,GL,77.786517,-70.638657,102
QOQ,BGSO,Saarloq Heliport,Saarloq,GL,60.537778,-46.024722,
,BGSQ,Saqqaq Heliport,Saqqaq,GL,70.011448,-51.932142,38
JHS,BGSS,Sisimiut Airport,Sisimiut,GL,66.951302,-53.729301,33
SAE,BGST,Saattut Heliport,Saattut,GL,70.811172,-51.63129,131
SVR,BGSV,Savissivik Heliport,Savissivik,GL,76.018613,-65.117683,24
TQA,BGTA,Tasiusaq Heliport,Tasiusaq,GL,73.373055,-56.06028,181
THU,BGTL,Pituffik Space Base,Pituffik,GL,76.531197,-68.703201,251
TQI,BGTN,Tiniteqilaaq Heliport,Tiniteqilaaq,GL,65.892027,-37.783409,15
XEQ,BGTQ,Tasiusaq Heliport,Tasiusak,GL,60.194305,-44.813447,21
JUV,BGUK,Upernavik Airport,Upernavik,GL,72.790199,-56.1306,414
UMD,BGUM,Uummannaq Heliport,Uummannaq,GL,70.680428,-52.11163,50
JQA,BGUQ,Qaarsut Airport,Uummannaq,GL,70.7342,-52.696201,289
JUK,BGUT,Ukkusissat Heliport,Ukkusissat,GL,71.049438,-51.890016,223
BHL,,Bahía de los Ángeles Airport,Ensenada,MX,28.9786,-113.560997,34
BHT,,Brighton Downs Airport,Brighton Downs,AU,-23.363333,141.562778,390
AEY,BIAR,Akureyri Airport,Akureyri,IS,65.656573,-18.072018,6
,BIBA,Bakki Airport,Bakki,IS,63.556099,-20.137501,45
BIU,BIBD,Bildudalur Airport,Bildudalur,IS,65.641296,-23.5462,18
BGJ,BIBF,Borgarfjörður eystri Airport,Borgarfjörður eystri,IS,65.516769,-13.81578,80
BJD,BIBK,Bakkafjörður Airport,Bakkafjörður,IS,66.02189636230469,-14.824399948120117,14
BLO,BIBL,Blönduós Airport,Blönduós,IS,65.644997,-20.2875,131
,BIBR,Búðardalur Airport,Búðardalur,IS,65.074583,-21.802193,131
BXV,BIBV,Breiðdalsvík Airport,Breiðdalsvík,IS,64.790037,-14.043927,8
DJU,BIDV,Djúpivogur Airport,Djúpivogur,IS,64.642372,-14.277297,9
EGS,BIEG,Egilsstaðir Airport,Egilsstaðir,IS,65.2833023071289,-14.401399612426758,76
FAS,BIFF,Fáskrúðsfjörður Airport,Fáskrúðsfjörður,IS,64.931456,-14.047957,15
FAG,BIFM,Fagurhólsmýri Airport,Fagurhólsmýri,IS,63.874699,-16.6411,56
GUU,BIGF,Grundarfjörður Airport,Grundarfjörður,IS,64.991402,-23.224701,17
GJR,BIGJ,Gjögur Airport,Gjögur,IS,65.9953,-21.3269,83
GRY,BIGR,Grímsey Airport,Grímsey,IS,66.5458,-18.0173,66
HVK,BIHK,Hólmavík Airport,Hólmavík,IS,65.704697,-21.6964,90
HFN,BIHN,Hornafjörður Airport,Höfn,IS,64.295601,-15.2272,24
FLI,,Holt Airport,Flateyri,IS,66.0141804294,-23.4416913986,10
HZK,BIHU,Húsavík Airport,Húsavík,IS,65.952301,-17.426001,48
HLO,,Ingjaldssanður Airport,Onundarfjörður,IS,66.05000305175781,-23.69610023498535,70
IFJ,BIIS,Ísafjörður Airport,Ísafjörður,IS,66.058098,-23.1353,8
KEF,BIKF,Keflavik International Airport,Reykjavík,IS,63.985001,-22.6056,171
OPA,BIKP,Kópasker Airport,Kópasker,IS,66.310799,-16.4667,20
SAK,BIKR,Sauðárkrókur Airport,Sauðárkrókur,IS,65.73169708249999,-19.572799682599996,8
NOR,BINF,Norðfjörður Airport,Norðfjörður,IS,65.131897,-13.7464,13
OFJ,BIOF,Ólafsfjörður Airport,Ólafsfjörður,IS,66.083298,-18.6667,32
PFJ,BIPA,Patreksfjörður Airport,Patreksfjörður,IS,65.555801,-23.965,11
RHA,BIRE,Reykhólar Airport,Reykhólar,IS,65.45262908935547,-22.20611572265625,60
OLI,BIRF,Rif Airport,Rif,IS,64.9114,-23.823099,18
RFN,BIRG,Raufarhöfn Airport,Raufarhöfn,IS,66.406403,-15.9183,39
RKV,BIRK,Reykjavík Domestic Airport,Reykjavík,IS,64.128732,-21.93759,48
MVA,BIRL,Reykjahlíð Airport,Myvatn,IS,65.6558,-16.9181,1030
SIJ,BISI,Siglufjörður Airport,Siglufjörður,IS,66.137847,-18.908157,10
SYK,BIST,Stykkishólmur Airport,Stykkishólmur,IS,65.058851,-22.764616,42
TEY,BITE,Þingeyri Airport,Þingeyri,IS,65.8703,-23.559999,65
THO,BITN,Þórshöfn Airport,Þórshöfn,IS,66.218498,-15.3356,65
VEY,BIVM,Vestmannaeyjar Airport,Vestmannaeyjar,IS,63.42430114746094,-20.278900146484375,326
VPN,BIVO,Vopnafjörður Airport,Vopnafjörður,IS,65.720596,-14.8506,16
BJE,,Baleela Airport,Baleela Base Camp,SD,11.199444444400001,28.5230555556,1690
BJQ,,Bahja Airport,Bahja,OM,19.8730555556,56.067777777799996,515
BJT,,Bentota River Waterdrome,Bentota,LK,6.431,79.996,
PRN,BKPR,Priština Adem Jashari International Airport,Prishtina,XK,42.5728,21.035801,1789
BMQ,,Bamburi Airport,Bamburi,KE,-3.983363,39.730982,52
BNF,,Baranof Warm Springs Float and Seaplane Base,Baranof,US,57.088799,-134.833146,0
BNV,,Boana Airport,Boana,PG,-6.426631,146.826697,2950
BVL,,Baures Airport,Baures,BO,-13.654426,-63.704718,470
BOV,,Boang Airport,Boang Island,PG,-3.3834,153.2812,85
BQV,,Bartlett Cove Seaplane Base,Gustavus,US,58.4552,-135.884995,
CJZ,,Pedro Vieira Moreira Airport,Cajazeiras,BR,-6.8827,-38.61583,1099
VDC,SBVC,Glauber de Andrade Rocha Airport,Vitória da Conquista,BR,-14.907885,-40.914804,2940
,SSOM,Embaixador Airport,Bela Vista de Goiás,BR,-16.822931,-49.044014,2410
CMP,,Santana do Araguaia Airport,Santana do Araguaia,BR,-9.319906,-50.328536,614
AAI,,Arraias Airport,Arraias,BR,-13.025154,-46.884107,1923
ITN,,Tertuliano Guedes de Pinho Airport,Itabuna,BR,-14.8105,-39.290401,197
LEP,,Leopoldina Airport,Leopoldina,BR,-21.468226,-42.727076,919
CPU,,Cururupu Airport,Cururupu,BR,-1.820006,-44.864065,39
CTQ,,Santa Vitória do Palmar Airport,Santa Vitória do Palmar,BR,-33.502038,-53.344911,82
APY,,Alto Parnaíba Airport,Alto Parnaíba,BR,-9.08533,-45.955603,968
JRN,,Juruena Airport,Juruena,BR,-10.305833,-58.489445,525
STZ,,Santa Terezinha Airport,Santa Terezinha,BR,-10.464722,-50.518612,663
MTG,,Vila Bela da Santíssima Trindade Airport,Vila Bela Da Santíssima Trindade,BR,-14.995499,-59.945662,660
ALT,,Alenquer Municipal Airport,Alenquer,BR,-1.917,-54.7231,55
,MYLM,Cape Santa Maria Airstrip,Galliot Cay,BS,23.649674,-75.32409,
NSB,,Bimini North Seaplane Base,Bimini,BS,25.767,-79.25,
BSV,,Besakoa Airport,Besakoa,MG,-15.6725,47.061667,40
BTZ,,Betong International Airport,Betong,TH,5.79,101.15,785
,FBMA,Matsieng Aerodrome,Rasesa,BW,-24.357132,26.090237,
,FBXX,Xudum Airport,Xudum,BW,-19.679458,22.86833,3133
,FBMM,Makalamabedi Airport,Makalamabedi,BW,-20.310743,23.907773,3100
HUK,,Hukuntsi Airport,Hukuntsi,BW,-23.9897,21.758101,3720
BWJ,,Bawan Airport,,PG,-6.396944444440001,146.881666667,4700
BXL,,Blue Lagoon Seaplane Base,Nanuya Lailai Island,FJ,-16.943,177.368,0
TXC,,Orsha Airport - Balbasovo Air Base,Orsha,BY,54.439999,30.2967,620
BYA,,Boundary Airport,Boundary,US,64.077678,-141.122088,2940
BYL,,Bella Yella Airport,Beliyela,LR,7.36916666667,-9.99372222222,690
BYV,,Beira Lake Seaplane Base,Colombo,LK,6.9294444444400005,79.85416666670001,17
BCV,,Hector Silva Airstrip,Belmopan,BZ,17.269603,-88.776496,150
BGK,,Big Creek Airport,Big Creek,BZ,16.519369,-88.407913,22
CUK,,Caye Caulker Airport,Caye Caulker,BZ,17.735015,-88.032862,2
CYC,,Caye Chapel Airport,Caye Chapel,BZ,17.683792,-88.044985,3
CZH,,Corozal Airport,Corozal,BZ,18.3822,-88.411903,40
DGA,,Dangriga Airport,Dangriga,BZ,16.98251,-88.230988,10
INB,,Independence Airport,Independence,BZ,16.53456,-88.441615,18
MDB,,Melinda Airport,Melinda,BZ,17.004299,-88.304199,101
ORZ,,H.E Alfredo Martinez (Tower Hill) Airstrip,Orange Walk,BZ,18.046767,-88.583858,69
PND,,Punta Gorda Airport,Punta Gorda,BZ,16.1024,-88.808296,7
SJX,,Sartaneja Airport,Sartaneja,BZ,18.3561,-88.130798,3
SPR,,John Greif II Airport,San Pedro,BZ,17.9139,-87.9711,4
SQS,,Matthew Spain Airport,Spanish Lookout,BZ,17.185898,-89.009936,199
STU,,Santa Cruz Airport,Santa Cruz,BZ,18.2721004486084,-88.456298828125,18
SVK,,Silver Creek Airport,Silver Creek,BZ,16.728338,-88.369174,216
TZA,,Sir Barry Bowen Municipal Airport,Belize City,BZ,17.517239,-88.195775,8
BZB,,Bazaruto Island Airport,Bazaruto Island,MZ,-21.5411,35.4729,
BZM,,Bemolanga Airport,Bemolanga,MG,-17.6925,45.0888333333,950
PFM,,Primrose Airport,Primrose,CA,55.390002,-111.1198,2307
YSV,,Saglek Airport,Saglek,CA,58.474312,-62.653999,269
YRR,,Stuart Island Airstrip,Big Bay,CA,50.409447,-125.131617,360
YMV,,Mary River Aerodrome,Mary River,CA,71.324167,-79.356944,584
YHC,,Hakai Passage Water Aerodrome,Hecate Island,CA,51.669733,-128.08181,0
YMF,,Montague Harbour Seaplane Base,Galiano Island,CA,48.89225,-123.39215,
PYS,,Paradise Skypark Airport,Paradise,US,39.71029,-121.616528,1300
YBW,,Bedwell Harbour Seaplane Base,Bedwell Harbour,CA,48.75,-123.233001709,0
YTP,,Tofino Harbour Seaplane Base,Tofino,CA,49.155,-125.91,
CBA,,Alpine Heliport,West Kelowna,CA,49.8636,-119.568045,1640
ZNA,,Nanaimo Harbour Water Aerodrome,Nanaimo,CA,49.169813,-123.933845,
YZZ,,Trail Regional Airport,Trail,CA,49.055599,-117.609001,1427
YMB,,Merritt Airport,Merritt,CA,50.122504,-120.745368,2080
YHH,,Campbell River Seaplane Base,Campbell River,CA,50.049999,-125.25,
YWS,,Whistler/Green Lake Water Aerodrome,Whistler,CA,50.1436004639,-122.948997498,2100
YBF,,Bamfield Seaplane Base,Bamfield,CA,48.835967,-125.137453,
YIG,,Big Bay Seaplane Base,Stuart Island,CA,50.3923,-125.1372,
CJH,,Chilko Lake (Tsylos Park Lodge) Airport,Chilko Lake,CA,51.625797,-124.144478,3850
YPT,,Pender Harbour Seaplane Base,Sunshine Coast,CA,49.623785,-124.024884,
ZOF,,Ocean Falls Seaplane Base,Ocean Falls,CA,52.3666992188,-127.717002869,0
YCA,,Courtenay Airpark,Courtenay,CA,49.679237,-124.98064,26
CFQ,,Creston Valley Regional Airport - Art Sutcliffe Field,Creston,CA,49.03689956665,-116.49800109863,2070
YAA,,Anahim Lake Airport,Anahim Lake,CA,52.451501,-125.303776,3635
DGF,,Douglas Lake Airport,Douglas Lake,CA,50.1654600485,-120.171273351,2770
JHL,,Fort MacKay/Albian Aerodrome,Albian Village,CA,57.223899841299996,-111.418998718,1048
ZTS,,Tahsis Seaplane Base,Tahsis,CA,49.92,-126.655,0
DUQ,,Duncan Airport,Duncan,CA,48.754534,-123.709702,300
YHS,,Sechelt-Gibsons Airport,Sechelt,CA,49.460601806599996,-123.71900177,340
YKK,,Kitkatla Seaplane Base,Kitkatla,CA,53.7999992371,-130.432998657,
ZQS,,Queen Charlotte City Seaplane Base,Queen Charlotte,CA,53.25282,-132.074214,
WPL,,Powell Lake Seaplane Base,Powell River,CA,49.887335,-124.53372,174
XQU,,Qualicum Beach Airport,Qualicum Beach,CA,49.337456,-124.393086,191
YMP,,Port McNeill Airport,Port McNeill,CA,50.57348,-127.027702,225
YRN,,Rivers Inlet Seaplane Base,Rivers Inlet,CA,51.683985,-127.264044,
YTG,,Sullivan Bay Seaplane Base,Sullivan Bay,CA,50.885359,-126.831069,
YMU,,Mansons Landing Seaplane Base,Mansons Landing,CA,50.07137,-124.98362,
YAV,,Mayne Island Seaplane Base,Miners Bay,CA,48.852241,-123.301982,
YSX,,Bella Bella/Shearwater Seaplane Base,Bella Bella,CA,52.150002,-128.08299,0
YGG,,Ganges Seaplane Base,Salt Spring Island,CA,48.8545,-123.4969,0
YTB,,Hartley Bay Seaplane Base,Hartley Bay,CA,53.416698,-129.25,0
YZA,,Cache Creek-Ashcroft Regional Airport,Cache Creek,CA,50.775258,-121.321314,2034
ZEL,CBBC,Bella Bella (Campbell Island) Airport,Bella Bella,CA,52.185001,-128.156994,141
CBC,,Cherrabun Airport,,AU,-18.917777777800005,125.537777778,540
YPB,,Alberni Valley Regional Airport,Port Alberni,CA,49.321899,-124.931,250
YBO,,Bob Quinn Lake Airport,Bob Quinn Lake,CA,56.966702,-130.25,2000
TNS,,Tungsten (Cantung) Airport,Tungsten,CA,61.956901550293,-128.20300292969,3500
TUX,,Tumbler Ridge Airport,Tumbler Ridge,CA,55.025001525879,-120.93499755859,3075
YWM,,Williams Harbour Airport,Williams Harbour,CA,52.567377,-55.784883,70
YSO,,Postville Airport,Postville,CA,54.9105,-59.78507,193
YBI,,Black Tickle Airport,Black Tickle,CA,53.469836,-55.787501,57
YHG,,Charlottetown Airport,Charlottetown,CA,52.765774,-56.11237,209
YFX,,St. Lewis (Fox Harbour) Airport,St. Lewis,CA,52.372799,-55.673901,74
YHA,,Port Hope Simpson Airport,Port Hope Simpson,CA,52.528099060058594,-56.28609848022461,347
YRG,,Rigolet Airport,Rigolet,CA,54.1796989440918,-58.45750045776367,180
,FZNS,Wageni Airport,Beni,CD,0.510171,29.475803,3786
KGN,,Kasongo-Lunda Airport,Kasongo-Lunda,CD,-6.468027,16.805012,1699
DVK,,Diavik Airport,Diavik,CA,64.5113983154,-110.289001465,1413
JOJ,,Doris Lake,Hope Bay,CA,68.1252746582,-106.585281372,50
ZFW,,Fairview Airport,Fairview,CA,56.081401825,-118.434997559,2166
YJP,,Jasper-Hinton Airport,Hinton,CA,53.319199,-117.752998,4006
YLE,,Whatì Airport,Whatì,CA,63.13169860839844,-117.24600219726562,882
YDC,,Drayton Valley Industrial Airport,Drayton Valley,CA,53.265800476074,-114.95999908447,2776
NML,,Fort McMurray / Mildred Lake Airport,Fort McMurray,CA,57.0555992126,-111.573997498,1046
CFM,,Conklin (Leismer) Airport,Conklin,CA,55.695301,-111.278999,1930
KWD,,Kavadja Airport,Kavadja,CF,7.964938,23.526018,2395
GSL,,Taltheilei Narrows Airport,Taltheilei Narrows,CA,62.5980987549,-111.542999268,570
XMP,,Macmillan Pass Airport,Macmillan Pass,CA,63.181098938,-130.20199585,3810
DAS,,Great Bear Lake Airport,Great Bear Lake,CA,66.703053,-119.716816,562
YFI,,Fort Mackay / Firebag,Suncor Energy Site,CA,57.275833,-110.976666,1762
YOE,,Donnelly Airport,Donnelly,CA,55.7094,-117.094002,1949
TIL,,Cheadle Airport,Cheadle,CA,51.057498931885,-113.62400054932,3300
OKG,,Okoyo Airport,Okoyo,CG,-1.4483300447464,15.073300361633,1415
CGA,,Craig Seaplane Base,Craig,US,55.478802,-133.147995,
CGG,,Casiguran Airport,Casiguran,PH,16.1941,122.0651,48
GHK,,Gahcho Kue,Kennedy Lake,CA,63.435198,-109.144812,1371
CHP,,Circle Hot Springs Airport,Circle Hot Springs,US,65.485496521,-144.610992432,956
CIV,,Chomley Seaplane Base,Chomley,US,55.217,-132.21,0
LRQ,,Laurie River Airport,Laurie River,CA,56.2486000061,-101.304000854,1200
YDJ,,Hatchet Lake Airport,Hatchet Lake,CA,58.662498474121,-103.53800201416,1362
YDU,,Kasba Lake Airport,Kasba Lake,CA,60.291900634766,-102.50199890137,1131
YFL,,Fort Reliance Seaplane Base,Fort Reliance,CA,62.7,-109.167,514
XCL,,Cluff Lake Airport,Cluff Lake,CA,58.3911018372,-109.51599884,1112
YKE,,Knee Lake Airport,Knee Lake,CA,54.915298,-94.798103,625
SUR,,Summer Beaver Airport,Summer Beaver,CA,52.70859909057617,-88.54190063476562,832
CKD,,Crooked Creek Airport,Crooked Creek,US,61.870315,-158.137636,178
YTT,,Tisdale Airport,Tisdale,CA,52.836700439453,-104.06700134277,1525
YAX,,Wapekeka Airport,Angling Lake,CA,53.84920120239258,-89.57939910888672,712
WNN,,Wunnumin Lake Airport,Wunnumin Lake,CA,52.893902,-89.2892,819
YBS,,Opapimiskan Lake Airport,Opapimiskan Lake,CA,52.6067008972,-90.3768997192,1023
YNO,,North Spirit Lake Airport,North Spirit Lake,CA,52.4900016784668,-92.97109985351562,1082
CKR,,Crane Island Airstrip,Crane Island,US,48.5978,-122.9979,108
CKU,,Cordova Municipal Airport,Cordova,US,60.5438995361,-145.727005005,12
YDW,,North of Sixty Airport,Obre Lake,CA,60.316398620605,-103.12899780273,1195
CKX,,Chicken Airport,Chicken,US,64.066495,-141.951342,1640
CMT,,New Cametá Airport,Cametá,BR,-2.2468,-49.56,60
CMZ,,Caia Airport,Caia,MZ,-17.8331,35.3341,156
ZKL,,Zigong Fengming Airport,Zigong (Gongjing),CN,29.376484,104.625789,1133
BZX,ZUBZ,Bazhong Enyang Airport,Bazhong (Enyang),CN,31.73842,106.644872,1804
DFA,,Shangluo Airport,Shangluo (Danfeng),CN,33.708533,110.249284,
HSC,ZGSG,Shaoguan Danxia Airport,Shaoguan,CN,24.9786,113.420998,280
JGS,ZSGS,Jinggangshan Airport,Ji'an,CN,26.856899,114.737,281
DWS,,Morin Dawa Banner Airport,Hulunbuir,CN,48.38745,124.43127,722
LCT,,Shijiazhuang Luancheng Airport,Shijiazhuang,CN,37.91305,114.59166,197
WHN,,Wuhan Hannan Municipal Airport,Wuhan (Hannan),CN,30.25521,114.062805,85
NAY,,Beijing Nanjiao Airport,Beijing,CN,39.48595,116.37236,
PFA,,Harbin Pingfang Airport,Harbin,CN,45.59886,126.65808,
PNJ,,Penglai Shahekou Airport,Yantai,CN,37.80473,120.80954,20
CBZ,,Binzhou Dagao General Aviation Airport,Binzhou,CN,37.61055,117.885699,25
DDR,ZUDR,Rikaze Dingri Airport,Xigazê (Dingri),CN,28.604567,86.798,14108
HQL,ZWTK,Tashikuergan Hongqilafu Airport,Tashikuergan,CN,37.661333,75.288877,10499
HEW,,Dongyang Hengdian General Airport,Jinhua (Dongyang),CN,29.122619,120.24289,364
JDE,,Jiande Qiandaohu General Airport,Hangzhou,CN,29.360905,119.180829,249
HLJ,,Zhaodong Beidahuang General Airport,Suihua,CN,46.12779,125.77354,469
TYC,,Taiyuan Yaocheng Airport,Taiyuan,CN,37.50312,112.424126,
WRH,,Orku Baikouquan Airport (under construction),Urhu,CN,46.018127,85.655293,
JRJ,,Ganzhou Ruijin Airport,Ganzhou,CN,25.960236,116.077016,750
APJ,ZUPL,Ali Pulan Airport,Burang Town,CN,30.3975,81.138611,13943
ZFL,ZWZS,Zhaosu Tianma Airport,Zhaosu,CN,43.088477,81.223013,
,ZBMV,Dengkou General Aviation Airport,Bayannur,CN,40.302832,107.010698,3458
YEH,,Yinchuan Yueyahu Airport,Yinchuan,CN,38.588095,106.539788,3727
LCS,,Longchuan Guangsong Airport,Dehong (Longchuan),CN,24.26652,97.9048,3297
LFH,,Lanping Fenghua General Airport,Lanping Bai,CN,26.64518,99.54419,8276
ZGN,,Zhongshan Ferry Port,Zhongshan,CN,22.519296,113.361307,
BZJ,,Bozhou Airport (under construction),Bozhou,CN,33.560777,115.911859,
BKV,,Bailing Airport,Bailingmiao,CN,41.656944,110.3125,4645
HJB,ZWHJ,Hejing Bayinbuluke Airport,Hejing,CN,42.976395,83.995543,8219
OTQ,,Otog Front Banner Oljoq Airport,Otog Front Banner,CN,38.1712,107.3905,
JBK,ZWQT,Qitai Jiangbulake Airport,Qitai,CN,44.166086,89.55014,
LIJ,ZSLI,Lishui Airport,Lishui (Liandu),CN,28.3727,119.839,
YHJ,,Nanchang Yaohu Airport,Nanchang,CN,28.700972,116.107694,
OTO,,Otog Banner Wulan Airport,Wulan,CN,39.03139,107.98889,4423
BFY,,Bengbu Tenghu Airport (U.C.),Bengbu,CN,33.165808,117.057295,72
XBE,,Bearskin Lake Airport,Bearskin Lake,CA,53.965599060058594,-91.0271987915039,800
YNP,,Natuashish Airport,Natuashish,CA,55.913898,-61.184399,30
YWR,,White River Seaplane Base,White River,CA,48.6269,-85.223297,1380
YPD,,Parry Sound Area Municipal Airport,Parry Sound,CA,45.2575,-79.829697,832
XBR,,Brockville - Thousand Islands Regional Tackaberry Airport,Brockville,CA,44.6394004822,-75.7502975464,402
KIF,,Kingfisher Lake Airport,Kingfisher Lake,CA,53.01250076293945,-89.85530090332031,866
LCR,,Virgilio Barco Vargas (La Chorrera) Airport,La Chorrera,CO,-1.456361,-72.801086,564
YEB,,Bar River Airport,Echo Bay,CA,46.421233,-84.096478,591
CPI,,Cape Orford Airport,,PG,-5.44833333333,152.081944444,20
YSI,,Parry Sound/Frying Pan Island-Sans Souci Seaplane Base,Frying Pan Island,CA,45.173302,-80.137497,580
KEW,,Keewaywin Airport,Keewaywin,CA,52.9911,-92.836403,988
ACO,,Cóbano Airport,Cóbano,CR,9.693365,-85.091216,502
KFM,,Kirby Lake Airport,Kirby Lake,CA,55.355598,-110.637001,2260
YSA,,Sable Island Landing Strip,Sable Island,CA,43.930951,-59.996147,4
YLS,,Lebel-sur-Quevillon Airport,Lebel-sur-Quévillon,CA,49.0303001404,-77.0171966553,960
YNX,,Snap Lake Airport,Snap Lake Mine,CA,63.593601,-110.905998,1557
SSQ,,La Sarre Airport,La Sarre,CA,48.917198181152,-79.178596496582,1048
YKU,,Chisasibi Airport,Chisasibi,CA,53.805599212646484,-78.91690063476562,43
ZTB,,Tête-à-la-Baleine Airport,Tête-à-la-Baleine,CA,50.674400329589844,-59.38359832763672,107
ZKG,,Kégashka Airport,Côte-Nord-du-Golfe-du-Saint-Laurent,CA,50.195801,-61.2658,32
YWQ,,Chute-Des-Passes/Lac Margane Seaplane Base,Chutes-des-Passes,CA,49.9434,-71.138,1310
CTP,,Carutapera Airport,Carutapera,BR,-1.225365,-46.019057,85
YAU,,Donaldson Airport,Kattiniq,CA,61.6622009277,-73.3214035034,1902
ZGS,,La Romaine Airport,Le Golfe-du-Saint-Laurent,CA,50.259553,-60.674357,90
YFG,,Fontanges Airport,Fontanges,CA,54.553901672363,-71.173301696777,1550
ZLT,,La Tabatière Airport,La Tabatière,CA,50.8307991027832,-58.97560119628906,102
CUJ,,Culion Airport,Culion,PH,11.8553,119.9378,155
CVL,,Cape Vogel Airport,,PG,-9.67,150.019722222,20
CXC,,Chitina Airport,Chitina,US,61.582901,-144.427002,556
,LCRE,Kingsfield Air Base,Dhekelia Sovereign Base Area,CY,35.014275,33.715851,288
,LCNC,UNFICYP Nicosia Airport Heliport,Lakatamia,CY,35.145962,33.283306,722
YAB,CYAB,Arctic Bay Airport,Arctic Bay,CA,73.006101,-85.04616,72
YAC,CYAC,Cat Lake Airport,Cat Lake,CA,51.7272,-91.824402,1344
YAR,CYAD,La Grande-3 Airport,La Grande-3,CA,53.5717010498,-76.19640350339999,775
YAG,CYAG,Fort Frances Municipal Airport,Fort Frances,CA,48.655749,-93.44349,1125
YAH,CYAH,La Grande-4 Airport,La Grande-4,CA,53.754699707,-73.6753005981,1005
YAL,CYAL,Alert Bay Airport,Alert Bay,CA,50.582199,-126.916,240
YAM,CYAM,Sault Ste Marie Airport,Sault Ste Marie,CA,46.483216,-84.508467,630
XKS,CYAQ,Kasabonika Airport,Kasabonika,CA,53.52470016479492,-88.6427993774414,672
YKG,CYAS,Kangirsuk Airport,Kangirsuk,CA,60.027199,-69.999199,403
YAT,CYAT,Attawapiskat Airport,Attawapiskat,CA,52.927502,-82.4319,31
,CYAV,Winnipeg / St. Andrews Airport,Winnipeg/Saint Andrews,CA,50.0564,-97.032501,760
,CYAW,CFB Shearwater Heliport,Halifax,CA,44.636782,-63.502107,144
,CYAX,Lac du Bonnet Airport,Lac du Bonnet,CA,50.294399,-96.010002,850
YAY,CYAY,St. Anthony Airport,St. Anthony,CA,51.391909,-56.08321,108
YAZ,CYAZ,Tofino / Long Beach Airport,Tofino,CA,49.079833,-125.775583,80
YBA,CYBA,Banff Airport,Banff,CA,51.208222,-115.540624,4583
YBB,CYBB,Kugaaruk Airport,Kugaaruk,CA,68.535711,-89.805508,56
YBC,CYBC,Baie-Comeau Airport,Baie-Comeau,CA,49.1325,-68.204399,71
QBC,CYBD,Bella Coola Airport,Bella Coola,CA,52.387501,-126.596001,117
YBE,CYBE,Uranium City Airport,Uranium City,CA,59.561401,-108.481003,1044
YBY,CYBF,Bonnyville Airport,Bonnyville,CA,54.304199,-110.744003,1836
YBG,CYBG,CFB Bagotville / Saguenay-Bagotville Airport,La Baie,CA,48.331908,-70.992909,522
YBK,CYBK,Baker Lake Airport,Baker Lake,CA,64.29889678960001,-96.077796936,59
YBL,CYBL,Campbell River Airport,Campbell River,CA,49.950802,-125.271004,346
XTL,CYBQ,Tadoule Lake Airport,Tadoule Lake,CA,58.706308,-98.511057,923
YBR,CYBR,Brandon Municipal Airport,Brandon,CA,49.91,-99.951897,1343
YBT,CYBT,Brochet Airport,Brochet,CA,57.8894,-101.679001,1136
YBV,CYBV,Berens River Airport,Berens River,CA,52.358898,-97.018303,728
YBX,CYBX,Lourdes-de-Blanc-Sablon Airport,Blanc-Sablon,CA,51.4436,-57.185299,121
YRF,CYCA,Cartwright Airport,Cartwright,CA,53.682501,-57.042303,40
YCB,CYCB,Cambridge Bay Airport,Cambridge Bay,CA,69.1081008911,-105.138000488,90
YCC,CYCC,Cornwall Regional Airport,Cornwall,CA,45.092637,-74.567724,175
YCD,CYCD,Nanaimo Airport,Nanaimo,CA,49.05497,-123.869863,92
YCE,CYCE,Centralia / James T. Field Memorial Aerodrome,Huron Park,CA,43.285599,-81.508301,824
YCG,CYCG,Castlegar/West Kootenay Regional Airport,Castlegar,CA,49.296398,-117.632004,1624
YCH,CYCH,Miramichi Airport,Miramichi,CA,47.007801,-65.449203,108
XCM,CYCK,Chatham Kent Airport,Chatham-Kent,CA,42.3064002991,-82.0819015503,650
YCL,CYCL,Charlo Airport,Charlo,CA,47.990799,-66.330299,132
YCN,CYCN,Cochrane Airport,Cochrane,CA,49.10559844970703,-81.01360321044922,861
YCO,CYCO,Kugluktuk Airport,Kugluktuk,CA,67.816408,-115.14307,74
YCQ,CYCQ,Chetwynd Airport,Chetwynd,CA,55.687198638916016,-121.62699890136719,2000
YCR,CYCR,Cross Lake (Charlie Sinclair Memorial) Airport,Cross Lake,CA,54.609758,-97.762442,709
YCS,CYCS,Chesterfield Inlet Airport,Chesterfield Inlet,CA,63.346901,-90.731102,32
YCT,CYCT,Coronation Airport,Coronation,CA,52.0750007629,-111.444999695,2595
YCW,CYCW,Chilliwack Airport,Chilliwack,CA,49.153157,-121.939309,32
YCY,CYCY,Clyde River Airport,Clyde River,CA,70.486099,-68.516701,87
YCZ,CYCZ,Fairmont Hot Springs Airport,Fairmont Hot Springs,CA,50.331052,-115.873739,2661
YDA,CYDA,Dawson City Airport,Dawson City,CA,64.04309844970703,-139.1280059814453,1215
YDB,CYDB,Burwash Airport,Burwash Landing,CA,61.371101,-139.041,2647
YDF,CYDF,Deer Lake Airport,Deer Lake,CA,49.2108,-57.391399,72
YDL,CYDL,Dease Lake Airport,Dease Lake,CA,58.422199,-130.031998,2600
XRR,CYDM,Ross River Airport,Ross River,CA,61.9706001282,-132.42300415,2314
YDN,CYDN,Dauphin Barker Airport,Dauphin,CA,51.1008,-100.052002,999
YDO,CYDO,Dolbeau-Saint-Felicien Airport,Dolbeau-Saint-Felicien,CA,48.7785,-72.375,372
YDP,CYDP,Nain Airport,Nain,CA,56.550778,-61.682224,22
YDQ,CYDQ,Dawson Creek Airport,Dawson Creek,CA,55.741245,-120.183263,2148
YEG,CYEG,Edmonton International Airport,Edmonton,CA,53.3097,-113.580002,2373
YEK,CYEK,Arviat Airport,Arviat,CA,61.0942,-94.070801,32
YEL,CYEL,Elliot Lake Municipal Airport,Elliot Lake,CA,46.351398468,-82.5614013672,1087
YEM,CYEM,Manitoulin East Municipal Airport,Sheguiandah,CA,45.842435,-81.857595,869
YEN,CYEN,Estevan Airport,Estevan,CA,49.2103004456,-102.966003418,1905
YER,CYER,Fort Severn Airport,Fort Severn,CA,56.018902,-87.676102,48
YET,CYET,Edson Airport,Edson,CA,53.578899383499994,-116.464996338,3043
YEU,CYEU,Eureka Airport,Eureka,CA,79.9946975708,-85.814201355,256
YEV,CYEV,Inuvik Mike Zubko Airport,Inuvik,CA,68.30419921880001,-133.483001709,224
YEY,CYEY,Amos/Magny Airport,Amos,CA,48.563903,-78.249702,1068
YFA,CYFA,Fort Albany Airport,Fort Albany,CA,52.203451,-81.695194,48
YFB,CYFB,Iqaluit Airport,Iqaluit,CA,63.756402,-68.555801,110
YFC,CYFC,Fredericton Airport,Fredericton,CA,45.868900299072266,-66.53720092773438,68
YFE,CYFE,Forestville Airport,Forestville,CA,48.74610137939453,-69.09719848632812,293
YFH,CYFH,Fort Hope Airport,Fort Hope,CA,51.561901,-87.907799,899
YTM,CYFJ,Mont-Tremblant International Airport,La Macaza,CA,46.409401,-74.779999,827
YFO,CYFO,Flin Flon Airport,Flin Flon,CA,54.678101,-101.681999,997
YFR,CYFR,Fort Resolution Airport,Fort Resolution,CA,61.1808013916,-113.690002441,526
YFS,CYFS,Fort Simpson Airport,Fort Simpson,CA,61.76020050048828,-121.23699951171875,555
YMN,CYFT,Makkovik Airport,Makkovik,CA,55.077335,-59.187942,234
YGB,CYGB,Texada Gillies Bay Airport,Texada,CA,49.694341,-124.518099,326
YGH,CYGH,Fort Good Hope Airport,Fort Good Hope,CA,66.240658,-128.647757,268
YGK,CYGK,Kingston Norman Rogers Airport,Kingston,CA,44.2253,-76.596901,305
YGL,CYGL,La Grande Rivière Airport,La Grande Rivière,CA,53.625301361083984,-77.7042007446289,639
YGM,CYGM,Gimli Industrial Park Airport,Gimli,CA,50.62810134887695,-97.04329681396484,753
YGO,CYGO,Gods Lake Narrows Airport,Gods Lake Narrows,CA,54.55768,-94.490061,617
YGP,CYGP,Michel-Pouliot Gaspé Airport,Gaspé,CA,48.774915,-64.481893,112
YGQ,CYGQ,Geraldton Greenstone Regional Airport,Geraldton,CA,49.77830123901367,-86.93939971923828,1144
YGR,CYGR,Îles-de-la-Madeleine Airport,Les Îles-de-la-Madeleine,CA,47.425242,-61.778612,35
YGT,CYGT,Igloolik Airport,Igloolik,CA,69.3647,-81.816101,174
YGV,CYGV,Havre-Saint-Pierre Airport,Havre-Saint-Pierre,CA,50.281898,-63.611401,124
YGW,CYGW,Kuujjuarapik Airport,Kuujjuarapik,CA,55.281898498535156,-77.76529693603516,34
YGX,CYGX,Gillam Airport,Gillam,CA,56.35712,-94.711504,476
YGZ,CYGZ,Grise Fiord Airport,Grise Fiord,CA,76.425823,-82.908583,146
YQC,CYHA,Quaqtaq Airport,Quaqtaq,CA,61.046398,-69.617798,103
YHB,CYHB,Hudson Bay Airport,Hudson Bay,CA,52.8166999817,-102.310997009,1175
CXH,CYHC,Vancouver Harbour Water Aerodrome,Vancouver,CA,49.291265,-123.11717,
YHD,CYHD,Dryden Regional Airport,Dryden,CA,49.831699,-92.744202,1354
YHE,CYHE,Hope Airport / FVRD Regional Airpark,Hope,CA,49.368865,-121.49495,128
YHF,CYHF,Hearst René Fontaine Municipal Airport,Hearst,CA,49.71419906616211,-83.68609619140625,827
YNS,CYHH,Nemiscau Airport,Nemiscau,CA,51.691101,-76.135597,802
YHI,CYHI,Ulukhaktok Holman Airport,Ulukhaktok,CA,70.762802,-117.806,117
YHK,CYHK,Gjoa Haven Airport,Gjoa Haven,CA,68.635597,-95.849701,152
YHM,CYHM,John C. Munro Hamilton International Airport,Hamilton,CA,43.173599243199995,-79.93499755859999,780
YHN,CYHN,Hornepayne Municipal Airport,Hornepayne,CA,49.19309997558594,-84.75890350341797,1099
YHO,CYHO,Hopedale Airport,Hopedale,CA,55.448757,-60.228124,39
YHP,CYHP,Poplar Hill Airport,Poplar Hill,CA,52.1133,-94.2556,1095
YHR,CYHR,Chevery Airport,Chevery,CA,50.468322,-59.637823,39
YHT,CYHT,Haines Junction Airport,Haines Junction,CA,60.7892,-137.546005,2150
YHU,CYHU,Montréal / Saint-Hubert Metropolitan Airport,Montréal,CA,45.517502,-73.416901,90
YHY,CYHY,Hay River / Merlyn Carter Airport,Hay River,CA,60.8396987915,-115.782997131,541
YHZ,CYHZ,Halifax / Stanfield International Airport,Halifax,CA,44.8807983398,-63.5085983276,477
YIB,CYIB,Atikokan Municipal Airport,Atikokan,CA,48.773899,-91.638603,1408
YDG,CYID,Digby / Annapolis Regional Airport,Digby,CA,44.5458450365,-65.7854247093,499
YIF,CYIF,St Augustin Airport,St-Augustin,CA,51.2117,-58.658298,20
YIK,CYIK,Ivujivik Airport,Ivujivik,CA,62.417301,-77.925301,126
YIO,CYIO,Pond Inlet Airport,Pond Inlet,CA,72.689494,-77.968941,181
YIV,CYIV,Island Lake Airport,Island Lake,CA,53.857200622558594,-94.65360260009766,770
YJA,CYJA,Jasper Airport,Jasper,CA,52.996418,-118.060233,3350
YJF,CYJF,Fort Liard Airport,Fort Liard,CA,60.235801696799996,-123.46900177,708
YJN,CYJN,St Jean Airport,St Jean,CA,45.29439926147461,-73.28109741210938,136
YJT,CYJT,Dymond Airport,Stephenville,CA,48.544201,-58.549999,84
YKA,CYKA,Kamloops John Moose Fulton Field Regional Airport,Kamloops,CA,50.703038,-120.448641,1133
YKC,CYKC,Collins Bay Airport,Collins Bay,CA,58.236099243199995,-103.678001404,1341
LAK,CYKD,Aklavik/Freddie Carmichael Airport,Aklavik,CA,68.223297,-135.00599,23
YKF,CYKF,Region of Waterloo International Airport,Breslau,CA,43.4608,-80.378601,1054
YWB,CYKG,Kangiqsujuaq (Wakeham Bay) Airport,Kangiqsujuaq,CA,61.5886,-71.929398,501
YKJ,CYKJ,Key Lake Airport,Key Lake,CA,57.256099700927734,-105.61799621582031,1679
YKL,CYKL,Schefferville Airport,Schefferville,CA,54.805301666259766,-66.8052978515625,1709
YKD,CYKM,Kincardine Municipal Airport,Kincardine,CA,44.201401,-81.606697,772
AKV,CYKO,Akulivik Airport,Akulivik,CA,60.8186,-78.148598,75
YOG,CYKP,Ogoki Post Airport,Ogoki Post,CA,51.6585998535,-85.9017028809,594
YKQ,CYKQ,Waskaganish Airport,Waskaganish,CA,51.473301,-78.758301,80
YKX,CYKX,Kirkland Lake Airport,Kirkland Lake,CA,48.21030044555664,-79.98139953613281,1157
YKY,CYKY,Kindersley Airport,Kindersley,CA,51.5175018311,-109.180999756,2277
YPJ,CYLA,Aupaluk Airport,Aupaluk,CA,59.2967,-69.599701,119
YLB,CYLB,Lac La Biche Airport,Lac La Biche,CA,54.7703018188,-112.031997681,1884
YLC,CYLC,Kimmirut Airport,Kimmirut,CA,62.848253,-69.877853,175
YLD,CYLD,Chapleau Airport,Chapleau,CA,47.81999969482422,-83.3467025756836,1470
YLH,CYLH,Lansdowne House Airport,Lansdowne House,CA,52.195599,-87.934196,834
YLJ,CYLJ,Meadow Lake Airport,Meadow Lake,CA,54.125301361083984,-108.52300262451172,1576
YSG,CYLK,Lutselk'e Airport,Lutselk'e,CA,62.417823,-110.682793,596
YLL,CYLL,Lloydminster Airport,Lloydminster,CA,53.3092,-110.072998,2193
YLQ,CYLQ,La Tuque Airport,La Tuque,CA,47.4096984863,-72.7889022827,548
YLR,CYLR,Leaf Rapids Airport,Leaf Rapids,CA,56.513301849365234,-99.98529815673828,959
YLK,CYLS,Barrie-Lake Simcoe Regional Airport,Barrie,CA,44.485056,-79.554663,972
YLT,CYLT,Alert Airport,Alert,CA,82.517799,-62.280602,100
XGR,CYLU,Kangiqsualujjuaq (Georges River) Airport,Kangiqsualujjuaq,CA,58.711399,-65.992798,215
YLW,CYLW,Kelowna International Airport,Kelowna,CA,49.9561,-119.377998,1421
CYM,,Chatham Seaplane Base,Chatham,US,57.5149,-134.945999,
YMA,CYMA,Mayo Airport,Mayo,CA,63.61640167236328,-135.8679962158203,1653
YME,CYME,Matane Airport,Matane,CA,48.85689926147461,-67.45330047607422,102
YMG,CYMG,Manitouwadge Airport,Manitouwadge,CA,49.083900451660156,-85.86060333251953,1198
YMH,CYMH,Mary's Harbour Airport,Mary's Harbour,CA,52.302837,-55.847433,38
YMJ,CYMJ,Moose Jaw Air Vice Marshal C. M. McEwen Airport,Moose Jaw,CA,50.330299377441406,-105.55899810791016,1892
YML,CYML,Charlevoix Airport,Charlevoix,CA,47.59749984741211,-70.2238998413086,977
YMM,CYMM,Fort McMurray Airport,Fort McMurray,CA,56.653301239,-111.222000122,1211
YMO,CYMO,Moosonee Airport,Moosonee,CA,51.291099548339844,-80.60780334472656,30
YMT,CYMT,Chapais Airport,Chibougamau,CA,49.77190017700195,-74.5280990600586,1270
YUD,CYMU,Umiujaq Airport,Umiujaq,CA,56.536098,-76.518303,250
YMW,CYMW,Maniwaki Airport,Messines,CA,46.2728,-75.990601,656
YMX,CYMX,Montreal International (Mirabel) Airport,Montréal,CA,45.679501,-74.038696,270
YNA,CYNA,Natashquan Airport,Natashquan,CA,50.190114,-61.78898,39
YNC,CYNC,Wemindji Airport,Wemindji,CA,53.010601,-78.8311,66
YND,CYND,Ottawa / Gatineau Airport,Gatineau,CA,45.521702,-75.563599,211
YNE,CYNE,Norway House Airport,Norway House,CA,53.958302,-97.8442,734
YNH,CYNH,Hudson's Hope Airport,Hudson's Hope,CA,56.035142,-121.978326,2220
YLY,CYNJ,Langley Airport,Langley,CA,49.1008,-122.630997,34
YNL,CYNL,Points North Landing Airport,Points North Landing,CA,58.27669906616211,-104.08200073242188,1605
YNM,CYNM,Matagami Airport,Matagami,CA,49.76169967651367,-77.80280303955078,918
HZP,CYNR,Fort Mackay / Horizon Airport,Fort Mackay,CA,57.381699,-111.700996,916
YOA,CYOA,Ekati Airport,Ekati,CA,64.6988983154,-110.614997864,1536
YOC,CYOC,Old Crow Airport,Old Crow,CA,67.570602,-139.839005,824
YOD,CYOD,CFB Cold Lake,Cold Lake,CA,54.404998779296875,-110.27899932861328,1775
YOH,CYOH,Oxford House Airport,Oxford House,CA,54.9333,-95.2789,663
YOJ,CYOJ,High Level Airport,High Level,CA,58.62139892578125,-117.16500091552734,1110
YOO,CYOO,Oshawa Executive Airport,Oshawa,CA,43.922798,-78.894997,460
YOP,CYOP,Rainbow Lake Airport,Rainbow Lake,CA,58.491402,-119.407997,1759
YOS,CYOS,Owen Sound / Billy Bishop Regional Airport,Owen Sound,CA,44.5903015137,-80.8375015259,1007
YOW,CYOW,Ottawa Macdonald-Cartier International Airport,Ottawa,CA,45.322498,-75.669197,374
YPA,CYPA,Prince Albert Glass Field,Prince Albert,CA,53.214199066199996,-105.672996521,1405
YPC,CYPC,Paulatuk (Nora Aliqatchialuk Ruben) Airport,Paulatuk,CA,69.360838,-124.07547,15
YPS,CYPD,Port Hawkesbury Airport,Port Hawkesbury,CA,45.6567001343,-61.3680992126,377
YPE,CYPE,Peace River Airport,Peace River,CA,56.226898,-117.446999,1873
YPG,CYPG,Portage-la-Prairie / Southport Airport,Portage la Prairie,CA,49.903099,-98.273817,885
YPH,CYPH,Inukjuak Airport,Inukjuak,CA,58.471901,-78.076897,83
,CYPK,Pitt Meadows Airport,Pitt Meadows,CA,49.216099,-122.709999,11
YPL,CYPL,Pickle Lake Airport,Pickle Lake,CA,51.4463996887207,-90.21420288085938,1267
YPM,CYPM,Pikangikum Airport,Pikangikum,CA,51.819698,-93.973297,1114
YPN,CYPN,Port-Menier Airport,Port-Menier,CA,49.836399,-64.288597,167
YPO,CYPO,Peawanuck Airport,Peawanuck,CA,54.987932,-85.442648,173
YPQ,CYPQ,Peterborough Municipal Airport,Peterborough,CA,44.23,-78.363297,628
YPR,CYPR,Prince Rupert Airport,Prince Rupert,CA,54.286098480199996,-130.445007324,116
YPW,CYPW,Powell River Airport,Powell River,CA,49.83420181274414,-124.5,425
YPX,CYPX,Puvirnituq Airport,Puvirnituq,CA,60.050598,-77.286903,74
YPY,CYPY,Fort Chipewyan Airport,Fort Chipewyan,CA,58.7672004699707,-111.11699676513672,761
YPZ,CYPZ,Burns Lake Airport,Burns Lake,CA,54.3764,-125.950996,2343
YQA,CYQA,Muskoka Airport,Gravenhurst,CA,44.975376,-79.306546,925
YQB,CYQB,Quebec Jean Lesage International Airport,Quebec,CA,46.7911,-71.393303,244
YQD,CYQD,The Pas Airport,The Pas,CA,53.97140121459961,-101.09100341796875,887
YQF,CYQF,Red Deer Regional Airport,Springbrook,CA,52.182201,-113.893997,2968
YQG,CYQG,Windsor Airport,Windsor,CA,42.27560043334961,-82.95559692382812,622
YQH,CYQH,Watson Lake Airport,Watson Lake,CA,60.116839,-128.821993,2255
YQI,CYQI,Yarmouth Airport,Yarmouth,CA,43.826900482177734,-66.08809661865234,141
YQK,CYQK,Kenora Airport,Kenora,CA,49.788299560546875,-94.36309814453125,1332
YQL,CYQL,Lethbridge County Airport,Lethbridge,CA,49.6302986145,-112.800003052,3048
YQM,CYQM,Greater Moncton Roméo LeBlanc International Airport,Moncton,CA,46.112202,-64.678596,232
YQN,CYQN,Nakina Airport,Nakina,CA,50.18280029296875,-86.69640350341797,1057
YQQ,CYQQ,Comox Valley Airport / CFB Comox,Comox,CA,49.7108,-124.887001,84
YQR,CYQR,Regina International Airport,Regina,CA,50.43190002441406,-104.66600036621094,1894
YQS,CYQS,St Thomas Municipal Airport,St Thomas,CA,42.77000045776367,-81.11080169677734,778
YQT,CYQT,Thunder Bay Airport,Thunder Bay,CA,48.37189865112305,-89.32389831542969,653
YQU,CYQU,Grande Prairie Airport,Grande Prairie,CA,55.1796989441,-118.885002136,2195
YQV,CYQV,Yorkton Municipal Airport,Yorkton,CA,51.26470184326172,-102.46199798583984,1635
YQW,CYQW,North Battleford Airport,North Battleford,CA,52.769409,-108.243742,1799
YQX,CYQX,Gander International Airport / CFB Gander,Gander,CA,48.936258,-54.567719,496
YQY,CYQY,Sydney / J.A. Douglas McCurdy Airport,Sydney,CA,46.1614,-60.047798,203
YQZ,CYQZ,Quesnel Airport,Quesnel,CA,53.026100158691406,-122.51000213623047,1789
YRA,CYRA,Rae Lakes Airport,Gamètì,CA,64.116096,-117.309998,723
YRB,CYRB,Resolute Bay Airport,Resolute Bay,CA,74.7169036865,-94.9693984985,215
YRI,CYRI,Rivière-du-Loup Airport,Rivière-du-Loup,CA,47.764400482177734,-69.58470153808594,427
YRJ,CYRJ,Roberval Airport,Roberval,CA,48.519665,-72.265735,586
YRL,CYRL,Red Lake Airport,Red Lake,CA,51.066898345947266,-93.79309844970703,1265
YRM,CYRM,Rocky Mountain House Airport,Rocky Mountain House,CA,52.4296989441,-114.903999329,3244
YRO,CYRO,Ottawa / Rockcliffe Airport,Ottawa,CA,45.4603004456,-75.64610290530001,188
YRQ,CYRQ,Trois-Rivières Airport,Trois-Rivières,CA,46.35279846191406,-72.67939758300781,199
YRS,CYRS,Red Sucker Lake Airport,Red Sucker Lake,CA,54.167198,-93.557198,729
YRT,CYRT,Rankin Inlet Airport,Rankin Inlet,CA,62.8114013672,-92.1157989502,94
YRV,CYRV,Revelstoke Airport,Revelstoke,CA,50.962245,-118.184258,1459
YSB,CYSB,Sudbury Airport,Sudbury,CA,46.625,-80.79889678955078,1141
YSC,CYSC,Sherbrooke Airport,Sherbrooke,CA,45.438599,-71.691399,792
YSD,CYSD,Canadian Forces Base Suffield Heliport,Ralston,CA,50.276359,-111.180189,2525
YSE,CYSE,Squamish Airport,Squamish,CA,49.7817001343,-123.162002563,171
YSF,CYSF,Stony Rapids Airport,Stony Rapids,CA,59.250301361083984,-105.84100341796875,805
YSH,CYSH,Smiths Falls-Montague (Russ Beach) Airport,Smiths Falls,CA,44.945801,-75.940598,416
YSJ,CYSJ,Saint John Airport,Saint John,CA,45.31610107421875,-65.89029693603516,357
YSK,CYSK,Sanikiluaq Airport,Sanikiluaq,CA,56.536891,-79.250221,104
YSL,CYSL,Saint-Léonard Airport,Saint-Léonard,CA,47.157097,-67.836242,793
YSM,CYSM,Fort Smith Airport,Fort Smith,CA,60.020302,-111.961998,671
YCM,CYSN,Niagara District Airport,Niagara-on-the-Lake,CA,43.191598,-79.171686,321
YSP,CYSP,Marathon Airport,Marathon,CA,48.75529861450195,-86.34439849853516,1035
YST,CYST,St. Theresa Point Airport,St. Theresa Point,CA,53.845261,-94.851966,773
YSU,CYSU,Summerside Airport,Slemon Park,CA,46.440601,-63.833599,56
YSY,CYSY,Sachs Harbour (David Nasogaluak Jr. Saaryuaq) Airport,Sachs Harbour,CA,71.993896,-125.242996,282
YTA,CYTA,Pembroke Airport,Pembroke,CA,45.86439895629883,-77.25170135498047,529
YTE,CYTE,Cape Dorset Airport,Kinngait,CA,64.230003,-76.526703,164
YTF,CYTF,Alma Airport,Alma,CA,48.5089,-71.641899,445
YTH,CYTH,Thompson Airport,Thompson,CA,55.80110168457031,-97.86419677734375,729
YTL,CYTL,Big Trout Lake Airport,Big Trout Lake,CA,53.817799,-89.896896,729
YTQ,CYTQ,Tasiujaq Airport,Tasiujaq,CA,58.667801,-69.955803,122
YTR,CYTR,CFB Trenton,Trenton,CA,44.118900299072266,-77.5280990600586,283
YTS,CYTS,Timmins/Victor M. Power,Timmins,CA,48.569698333699996,-81.376701355,967
YTZ,CYTZ,Billy Bishop Toronto City Centre Airport,Toronto,CA,43.627499,-79.396202,252
YUB,CYUB,Tuktoyaktuk / James Gruben Airport,Tuktoyaktuk,CA,69.433296,-133.026001,15
YUL,CYUL,Montreal / Pierre Elliott Trudeau International Airport,Montréal,CA,45.467837,-73.742294,118
YUT,CYUT,Naujaat Airport,Repulse Bay,CA,66.521024,-86.225166,80
YUX,CYUX,Hall Beach Airport,Sanirajak,CA,68.7761,-81.2425,30
YUY,CYUY,Rouyn Noranda Airport,Rouyn-Noranda,CA,48.20610046386719,-78.83560180664062,988
YVB,CYVB,Bonaventure Airport,Bonaventure,CA,48.071098,-65.460297,123
YVC,CYVC,La Ronge Airport,La Ronge,CA,55.151401519800004,-105.262001038,1242
YVG,CYVG,Vermilion Airport,Vermilion,CA,53.357714,-110.827388,2025
YVE,CYVK,Vernon Regional Airport,Vernon,CA,50.246163,-119.330963,1140
YCK,CYVL,Tommy Kochon Airport,Colville Lake,CA,67.02,-126.126,870
YVM,CYVM,Qikiqtarjuaq Airport,Qikiqtarjuaq,CA,67.54656,-64.03141,21
YVO,CYVO,Val-d'Or Airport,Val-d'Or,CA,48.0532989502,-77.7827987671,1107
YVP,CYVP,Kuujjuaq Airport,Kuujjuaq,CA,58.096099853515625,-68.4269027709961,129
YVQ,CYVQ,Norman Wells Airport,Norman Wells,CA,65.28160095214844,-126.7979965209961,238
YVR,CYVR,Vancouver International Airport,Vancouver,CA,49.193901062,-123.183998108,14
YVT,CYVT,Buffalo Narrows Airport,Buffalo Narrows,CA,55.8418998718,-108.417999268,1423
YVV,CYVV,Wiarton Airport,Wiarton,CA,44.7458,-81.107201,729
YVZ,CYVZ,Deer Lake Airport,Deer Lake,CA,52.655613,-94.061208,1092
YWA,CYWA,Petawawa Heliport,Petawawa,CA,45.952202,-77.319199,427
YFJ,CYWE,Wekweètì Airport,Wekweètì,CA,64.190804,-114.077002,1208
YWG,CYWG,Winnipeg / James Armstrong Richardson International Airport,Winnipeg,CA,49.909999847399995,-97.2398986816,783
YWH,CYWH,Victoria Harbour Seaplane Base,Victoria,CA,48.423782,-123.37198,
YWJ,CYWJ,Déline Airport,Déline,CA,65.211098,-123.435997,703
YWK,CYWK,Wabush Airport,Wabush,CA,52.92190170288086,-66.8644027709961,1808
YWL,CYWL,Williams Lake Airport,Williams Lake,CA,52.1831016541,-122.054000854,3085
YWP,CYWP,Webequie Airport,Webequie,CA,52.959393,-87.374868,685
YWY,CYWY,Wrigley Airport,Wrigley,CA,63.20940017700195,-123.43699645996094,489
YXC,CYXC,Cranbrook/Canadian Rockies International Airport,Cranbrook,CA,49.610801696777,-115.78199768066,3082
YXE,CYXE,Saskatoon John G. Diefenbaker International Airport,Saskatoon,CA,52.170799255371094,-106.69999694824219,1653
YXH,CYXH,Medicine Hat Regional Airport,Medicine Hat,CA,50.018902,-110.721001,2352
YXJ,CYXJ,Fort St John / North Peace Regional Airport,Fort Saint John,CA,56.238098,-120.739998,2280
YXK,CYXK,Rimouski Airport,Rimouski,CA,48.477644,-68.496323,82
YXL,CYXL,Sioux Lookout Airport,Sioux Lookout,CA,50.11389923095703,-91.9052963256836,1258
YXN,CYXN,Whale Cove Airport,Whale Cove,CA,62.240002,-92.598099,40
YXP,CYXP,Pangnirtung Airport,Pangnirtung,CA,66.144878,-65.713606,75
YXQ,CYXQ,Beaver Creek Airport,Beaver Creek,CA,62.410301208496094,-140.86700439453125,2131
YXR,CYXR,Earlton (Timiskaming Regional) Airport,Earlton,CA,47.697400654599996,-79.8473453522,800
YXS,CYXS,Prince George Airport,Prince George,CA,53.884311,-122.666554,2267
YXT,CYXT,Northwest Regional Airport Terrace-Kitimat,Terrace,CA,54.468498,-128.576009,713
YXU,CYXU,London Airport,London,CA,43.035599,-81.1539,912
YXX,CYXX,Abbotsford International Airport,Abbotsford,CA,49.025299,-122.361,195
YXY,CYXY,Whitehorse / Erik Nielsen International Airport,Whitehorse,CA,60.709599,-135.067001,2317
YXZ,CYXZ,Wawa Airport,Wawa,CA,47.96670150756836,-84.78669738769531,942
YYB,CYYB,North Bay Jack Garland Airport,North Bay,CA,46.363602,-79.422798,1215
YYC,CYYC,Calgary International Airport,Calgary,CA,51.118822,-114.009933,3557
YYD,CYYD,Smithers Airport,Smithers,CA,54.82469940185547,-127.18299865722656,1712
YYE,CYYE,Fort Nelson Airport,Fort Nelson,CA,58.8363990784,-122.597000122,1253
YYF,CYYF,Penticton Airport,Penticton,CA,49.46310043334961,-119.60199737548828,1129
YYG,CYYG,Charlottetown Airport,Charlottetown,CA,46.290000915527344,-63.12110137939453,160
YYH,CYYH,Taloyoak Airport,Taloyoak,CA,69.5467,-93.576698,92
YYJ,CYYJ,Victoria International Airport,Victoria,CA,48.647201,-123.427792,63
YYL,CYYL,Lynn Lake Airport,Lynn Lake,CA,56.86389923095703,-101.07599639892578,1170
YYM,CYYM,Cowley Airport,Cowley,CA,49.636398315399994,-114.09400177,3876
YYN,CYYN,Swift Current Airport,Swift Current,CA,50.291900634799994,-107.691001892,2680
YYQ,CYYQ,Churchill Airport,Churchill,CA,58.739200592041016,-94.06500244140625,94
YYR,CYYR,Goose Bay Airport,Goose Bay,CA,53.3191986084,-60.4258003235,160
YYT,CYYT,St. John's International Airport,St. John's,CA,47.618599,-52.7519,461
YYU,CYYU,Kapuskasing Airport,Kapuskasing,CA,49.411587,-82.469645,743
YYW,CYYW,Armstrong Airport,Armstrong,CA,50.29029846191406,-88.90969848632812,1058
YYY,CYYY,Mont Joli Airport,Mont-Joli,CA,48.60860061645508,-68.20809936523438,172
YYZ,CYYZ,Toronto Lester B. Pearson International Airport,Toronto,CA,43.6772,-79.6306,569
YZE,CYZE,Gore Bay Manitoulin Airport,Gore Bay,CA,45.8853,-82.567802,623
YZF,CYZF,Yellowknife International Airport,Yellowknife,CA,62.462799,-114.440002,675
YZG,CYZG,Salluit Airport,Salluit,CA,62.179401,-75.667198,743
YZH,CYZH,Slave Lake Airport,Slave Lake,CA,55.292945,-114.777276,1912
YZP,CYZP,Sandspit Airport,Sandspit,CA,53.25429916379999,-131.813995361,21
YZR,CYZR,Chris Hadfield Airport,Sarnia,CA,42.999401,-82.308899,594
YZS,CYZS,Coral Harbour Airport,Coral Harbour,CA,64.1932983398,-83.3593978882,210
YZT,CYZT,Port Hardy Airport,Port Hardy,CA,50.680599212646484,-127.36699676513672,71
YZU,CYZU,Whitecourt Airport,Whitecourt,CA,54.143902,-115.787003,2567
YZV,CYZV,Sept-Îles Airport,Sept-Îles,CA,50.22330093383789,-66.2656021118164,180
YZW,CYZW,Teslin Airport,Teslin,CA,60.17279815673828,-132.7429962158203,2313
YZX,CYZX,CFB Greenwood,Greenwood,CA,44.98440170288086,-64.91690063476562,92
,LKCU,Chomutov Hospital Heliport,Chomutov,CZ,50.453617,13.411807,1099
,LKLU,Luhačovice Airfield,Luhačovice,CZ,49.088188,17.718769,
ZAC,CZAC,York Landing Airport,York Landing,CA,56.089401,-96.089203,621
YSN,CZAM,Shuswap Regional Airport,Salmon Arm,CA,50.682802,-119.228996,1751
,CZBA,Burlington Executive Airpark,Burlington,CA,43.441453,-79.850103,602
YDT,CZBB,Boundary Bay Airport,Delta,CA,49.0742,-123.012001,6
ILF,CZBD,Ilford Airport,Ilford,CA,56.051622,-95.61882,642
ZBF,CZBF,Bathurst Airport,South Tetagouche,CA,47.6297,-65.738899,193
ZBM,CZBM,Bromont (Roland Désourdy) Airport,Bromont,CA,45.290798,-72.741402,375
KES,CZEE,Kelsey Airport,Kelsey,CA,56.0374984741,-96.50969696039999,600
ZEM,CZEM,Eastmain River Airport,Eastmain River,CA,52.226398,-78.522499,24
ZFA,CZFA,Faro Airport,Faro,CA,62.20750045776367,-133.37600708007812,2351
ZFD,CZFD,Fond-du-Lac Airport,Fond-du-Lac,CA,59.3344,-107.181999,814
XPK,CZFG,Pukatawagan Airport,Pukatawagan,CA,55.749199,-101.265999,958
ZFM,CZFM,Fort Mcpherson Airport,Fort Mcpherson,CA,67.406993,-134.860182,116
ZFN,CZFN,Tulita Airport,Tulita,CA,64.909496,-125.570297,332
ZGF,CZGF,Grand Forks Airport,Grand Forks,CA,49.015598,-118.431,1720
ZGI,CZGI,Gods River Airport,Gods River,CA,54.839699,-94.078598,627
ZGR,CZGR,Little Grand Rapids Airport,Little Grand Rapids,CA,52.045417,-95.46617,1005
ZHP,CZHP,High Prairie Airport,High Prairie,CA,55.3936,-116.474998,1974
CZJ,,Corazón de Jesús Airport,Tupile,PA,9.44686,-78.575678,8
ZJG,CZJG,Jenpeg Airport,Jenpeg,CA,54.51890182495117,-98.04609680175781,729
ZJN,CZJN,Swan River Airport,Swan River,CA,52.120602,-101.236,1100
ZKE,CZKE,Kashechewan Airport,Kashechewan,CA,52.282501,-81.677803,35
YTD,CZLQ,Thicket Portage Airport,Thicket Portage,CA,55.31890106201172,-97.70780181884766,678
MSA,CZMD,Muskrat Dam Airport,Muskrat Dam,CA,53.441399,-91.762802,911
ZMH,CZML,South Cariboo Region / 108 Mile Airport,108 Mile,CA,51.736099243199995,-121.333000183,3126
PIW,CZMN,Pikwitonei Airport,Pikwitonei,CA,55.58890151977539,-97.16419982910156,630
ZMT,CZMT,Masset Airport,Masset,CA,54.0275,-132.125,25
CZN,,Chisana Airport,Chisana,US,62.071201,-142.048004,3318
XPP,CZNG,Poplar River Airport,Poplar River,CA,52.996526,-97.274194,728
,CZNL,Nelson Airport,Nelson,CA,49.494202,-117.301003,1755
CZO,,Chistochina Airport,Chistochina,US,62.5634994507,-144.669006348,1850
ZPB,CZPB,Sachigo Lake Airport,Sachigo Lake,CA,53.890885,-92.195935,876
WPC,CZPC,Pincher Creek Airport,Pincher Creek,CA,49.520429,-113.997002,3903
ZPO,CZPO,Pinehouse Lake Airport,Pinehouse Lake,CA,55.5280990601,-106.582000732,1278
ZRJ,CZRJ,Round Lake (Weagamow Lake) Airport,Round Lake,CA,52.9436,-91.312798,974
ZSJ,CZSJ,Sandy Lake Airport,Sandy Lake,CA,53.06420135498047,-93.34439849853516,951
XSI,CZSN,South Indian Lake Airport,South Indian Lake,CA,56.792801,-98.907204,951
ZST,CZST,Stewart Airport,Stewart,CA,55.935410448,-129.982434511,24
ZSW,CZSW,Prince Rupert/Seal Cove Seaplane Base,Prince Rupert,CA,54.333302,-130.283005,
YDV,CZTA,Bloodvein River Airport,Bloodvein River,CA,51.784568,-96.692305,721
ZTM,CZTM,Shamattawa Airport,Shamattawa,CA,55.86356,-92.081137,289
ZUC,CZUC,Ignace Municipal Airport,Ignace,CA,49.428204,-91.720418,1435
ZUM,CZUM,Churchill Falls Airport,Churchill Falls,CA,53.5619010925293,-64.10639953613281,1442
,CZVL,Edmonton / Villeneuve Airport,Edmonton,CA,53.6675,-113.853996,2256
XLB,CZWH,Lac Brochet Airport,Lac Brochet,CA,58.614279,-101.468954,1211
ZWL,CZWL,Wollaston Lake Airport,Wollaston Lake,CA,58.106899,-103.171997,1360
IUA,,Canandaigua Airport,Ontario County IDA,US,42.908902,-77.325226,814
DJN,,Delta Junction Airport,Delta Junction,US,64.049861,-145.722656,1150
MQV,,Mostaganem Airport,Sayada,DZ,35.90518,0.144539,732
,DAAB,Blida Airport,Blida,DZ,36.503601,2.81417,535
BUJ,DAAD,Bou Saada Airport,Ouled Sidi Brahim,DZ,35.3325,4.20639,1506
BJA,DAAE,Soummam–Abane Ramdane Airport,Béjaïa,DZ,36.711952,5.069804,20
ALG,DAAG,Houari Boumediene Airport,Algiers,DZ,36.693886,3.214531,82
DJG,DAAJ,Djanet Inedbirene Airport,Djanet,DZ,24.292801,9.45244,3176
,DAAK,Boufarik Air Base,Boufarik,DZ,36.545799,2.87611,335
,DAAM,Telerghma Airport,Telerghma,DZ,36.1087,6.3646,2484
,DAAN,Reggane Airport,Reggane,DZ,26.712418,0.288219,955
VVZ,DAAP,Illizi Takhamalt Airport,Illizi,DZ,26.723499,8.62265,1778
,DAAQ,Ain Oussera Airport,Ain Oussera,DZ,35.525398,2.87871,2132
QSF,DAAS,Ain Arnat Airport,Sétif,DZ,36.178100585900005,5.3244900703399995,3360
TMR,DAAT,Aguenar – Hadj Bey Akhamok Airport,Tamanrasset,DZ,22.811501,5.45108,4518
GJL,DAAV,Jijel Ferhat Abbas Airport,Tahir,DZ,36.795101,5.87361,36
,DAAW,Bordj Omar Driss Airport,Bordj Omar Driss,DZ,28.136042,6.836156,1207
,DAAX,Chéraga Airport,Chéraga,DZ,36.7782,2.9284,396
MZW,DAAY,Mecheria Airport,Mecheria,DZ,33.535900116,-0.242353007197,3855
,DAAZ,Relizane Airport,Relizane,DZ,35.752955,0.625877,282
AAE,DABB,Annaba Rabah Bitat Airport,Annaba,DZ,36.826781,7.81334,16
CZL,DABC,Mohamed Boudiaf International Airport,Constantine,DZ,36.2760009765625,6.620389938354492,2265
QMH,,Oum El Bouaghi Air Base,Oum El Bouaghi,DZ,35.8797,7.2708,2980
TEE,DABS,Cheikh Larbi Tébessi Airport,Tébessi,DZ,35.4315986633,8.12071990967,2661
BLJ,DABT,Batna Mostefa Ben Boulaid Airport,Batna,DZ,35.752102,6.30859,2697
DAF,,Daup Airport,,PG,-4.7403,145.9515,280
HRM,DAFH,Hassi R'Mel Airport,Hassi R'Mel,DZ,32.930401,3.31154,2540
,DAFI,Tsletsi Airport,Djelfa,DZ,34.6657,3.351,3753
DAH,,Dathina Airport,Dathina,YE,13.866884,46.133473,-2
DAO,,Dabo Airport,,PG,-8.431944444440001,147.843055556,118
TID,DAOB,Abdelhafid Boussouf Bou Chekif Airport,Tiaret,DZ,35.341099,1.46315,3245
,DAOC,Béchar Ouakda Aerodrome,Béchar,DZ,31.642901,-2.18466,2660
,DAOE,Bousfer Air Base,Bousfer,DZ,35.735401,-0.805389,187
TIN,DAOF,Tindouf Airport,Tindouf,DZ,27.7003993988,-8.167099952700001,1453
CFK,DAOI,Chlef Aboubakr Belkaid International Airport,Chlef,DZ,36.217166,1.342237,463
TAF,DAOL,Oran Tafraoui Airport,Tafraoui,DZ,35.5424,-0.532278,367
TLM,DAON,Zenata – Messali El Hadj Airport,Zenata,DZ,35.013426,-1.457191,814
ORN,DAOO,Oran Es-Sénia (Ahmed Ben Bella) International Airport,Es-Sénia,DZ,35.623901,-0.621183,295
CBH,DAOR,Béchar Boudghene Ben Ali Lotfi Airport,Béchar,DZ,31.645700454711914,-2.269860029220581,2661
BFW,DAOS,Sidi Bel Abbes Airport,Sidi Bel Abbès,DZ,35.1717987061,-0.593275010586,1614
MUW,DAOV,Ghriss Airport,Ghriss,DZ,35.207699,0.147142,1686
EBH,DAOY,El Bayadh Airport,El Bayadh,DZ,33.721667,1.0925,4493
INF,DATG,In Guezzam Airport,In Guezzam,DZ,19.560518,5.749326,1312
BMW,DATM,Bordj Badji Mokhtar Airport,Bordj Badji Mokhtar,DZ,21.3778,0.92698,1303
AZR,DAUA,Touat Cheikh Sidi Mohamed Belkebir Airport,Adrar,DZ,27.837601,-0.186414,919
BSK,DAUB,Biskra - Mohamed Khider Airport,Biskra,DZ,34.793301,5.73823,289
ELG,DAUE,El Golea Airport,El Menia,DZ,30.580732,2.861595,1306
GHA,DAUG,Noumérat - Moufdi Zakaria Airport,El Atteuf,DZ,32.384102,3.79411,1512
HME,DAUH,Hassi Messaoud-Oued Irara Krim Belkacem Airport,Hassi Messaoud,DZ,31.673,6.14044,463
INZ,DAUI,In Salah Airport,In Salah,DZ,27.250999,2.51202,896
TGR,DAUK,Touggourt Sidi Madhi Airport,Touggourt,DZ,33.067799,6.08867,279
LOO,DAUL,Laghouat - Molay Ahmed Medeghri Airport,Laghouat,DZ,33.7644,2.92834,2510
ELU,DAUO,Guemar Airport - مطار قمار بالوادي,Guemar,DZ,33.511398,6.77679,203
TMX,DAUT,Timimoun Airport,Timimoun,DZ,29.237101,0.276033,1027
OGX,DAUU,Ain Beida Airport,Ouargla,DZ,31.9172,5.41278,492
IAM,DAUZ,Zarzaitine - In Aménas Airport,In Aménas,DZ,28.0515,9.64291,1847
COO,DBBB,Cadjehoun Airport,Cotonou,BJ,6.357230186462402,2.384350061416626,19
,DBBC,Bohicon/Cana Airport,Bohicon,BJ,7.125417,2.046806,548
DJA,DBBD,Djougou Airport,Djougou,BJ,9.69208333333,1.63777777778,1480
KDC,DBBK,Kandi Airport,Kandi,BJ,11.14479,2.940381,951
NAE,DBBN,Natitingou Airport,Natitingou,BJ,10.376965,1.360507,1512
,DBBO,Porga Airport,Porga,BJ,11.046563,0.992613,531
PKO,DBBP,Parakou Airport,Parakou,BJ,9.35768985748291,2.609679937362671,1266
,DBBR,Bembereke Airport,Bembereke,BJ,10.27409,2.697082,1188
SVF,DBBS,Savé Airport,Savé,BJ,8.018170356750488,2.4645800590515137,597
DBK,,Dutch Bay SPB,Kalpitiya Island,LK,8.273,79.756,0
DBU,,Dambulu Oya Tank Seaplane Base,Dambulla,LK,7.8604,80.6304,535
DCK,,Dahl Creek Airport,Dahl Creek,US,66.943298,-156.904999,260
DDM,,Dodoima Airport,,PG,-8.17736111111,147.809444444,75
,EDUG,Gransee Airfield,Gransee,DE,53.00628,13.202177,164
,EDVQ,Wilsche Glider Field,Gifhorn,DE,52.524677,10.462597,191
,EDUP,Perleberg Glider Field,,DE,53.070464,11.818672,91
,EDSM,Müllheim Airfield,Müllheim,DE,47.824316,7.639475,955
,EDSD,Deckenpfronn-Egelsee Airfield,Sindelfingen,DE,48.6385,8.8175,1895
,EDTA,Bohlhof Glider Field,Wutöschingen,DE,47.6509,8.3867,1885
,EDSF,Hütten Glider Field,Rickenbach,DE,47.6333,7.9412,2885
,EDKS,Iserlohn-Sümmern Glider Field,Iserlohn,DE,51.436389,7.699722,591
DEQ,,Deqing Moganshan Airport,Huzhou,CN,30.504264,120.107388,
DEX,WAVD,Nop Goliat Dekai Airport,Dekai,ID,-4.8557,139.482006,198
XKY,DFCA,Kaya Airport,Kaya,BF,13.067,-1.1,984
,DFCB,Barsalogho Airport,Barsalogho,BF,13.4,-1.067,1083
OUG,DFCC,Ouahigouya Airport,Ouahigouya,BF,13.655287,-2.322067,1089
,DFCD,Didyr Airport,Didyr,BF,12.55,-2.617,958
,DFCG,Kongoussi Airport,Kongoussi,BF,13.317,-1.533,1056
XDJ,DFCJ,Djibo Airport,Djibo,BF,14.125,-1.624722,1001
,DFCK,Koudougou Airport,Koudougou,BF,12.267,-2.4,1001
XLU,DFCL,Leo Airport,Leo,BF,11.1,-2.1,1181
PUP,DFCP,Po Airport,Po,BF,11.179139,-1.148472,1050
,DFCR,Poura Airport,Poura,BF,11.617425,-2.753686,853
,DFCS,Seguenega Airport,Seguenega,BF,13.440602,-1.994359,1139
XBO,DFEA,Boulsa Airport,Boulsa,BF,12.65,-0.567,984
XBG,DFEB,Bogande Airport,Bogande,BF,12.983,-0.167,984
DIP,DFED,Diapaga Airport,Diapaga,BF,12.060324,1.784631,951
DOR,DFEE,Dori Airport,Dori,BF,14.021638,-0.068207,925
FNG,DFEF,Fada N'gourma Airport,Fada N'gourma,BF,12.033,0.35,1011
XGG,DFEG,Gorom-Gorom Airport,Gorom-Gorom,BF,14.454174,-0.218644,935
XKA,DFEL,Kantchari Airport,Kantchari,BF,12.464046,1.492939,879
TMQ,DFEM,Tambao Airport,Tambao,BF,14.790874,0.039492,820
XPA,DFEP,Pama Airport,Pama,BF,11.25,0.7,699
ARL,DFER,Arly Airport,Arly,BF,11.597,1.483,761
XSE,DFES,Sebba Airport,Sebba,BF,13.45,0.517,886
TEG,DFET,Tenkodogo Airport,Tenkodogo,BF,11.801149,-0.371377,1017
XZA,DFEZ,Zabré Airport,Zabré,BF,11.167,-0.617,886
OUA,DFFD,Ouagadougou Airport,Ouagadougou,BF,12.3532,-1.51242,1037
,DFOA,Dano Airport,Dano,BF,11.133,-3.067,935
BNR,DFOB,Banfora Airport,Banfora,BF,10.688861,-4.727726,984
DGU,DFOD,Dedougou Airport,Dedougou,BF,12.459,-3.49,984
XGA,DFOG,Gaoua Airport,Gaoua,BF,10.384059,-3.163454,1099
,DFOH,Houndé Airport,Houndé,BF,11.491211,-3.512817,1063
XNU,DFON,Nouna Airport,Nouna,BF,12.75,-3.867000103,886
BOY,DFOO,Bobo Dioulasso Airport,Bobo Dioulasso,BF,11.160099983215332,-4.33096981048584,1511
,DFOR,Orodara Airport,Orodara,BF,10.986103,-4.924793,1706
TUQ,DFOT,Tougan Airport,Tougan,BF,13.059091,-3.077291,984
XDE,DFOU,Diebougou Airport,Diebougou,BF,10.95,-3.25,984
XAR,DFOY,Aribinda Airport,Aribinda,BF,14.217000007600001,-0.883000016212,1122
ACC,DGAA,Kotoka International Airport,Accra,GH,5.605189800262451,-0.16678600013256073,205
,DGAH,Ho Airport,Ho,GH,6.579691,0.532547,356
TML,DGLE,Tamale Airport,Tamale,GH,9.55718994140625,-0.8632140159606934,553
,DGLN,Navrongo Airport,Navrongo,GH,10.943081,-1.087356,678
WZA,DGLW,Wa Airport,Wa,GH,10.0827,-2.50769,1060
,DGLY,Yendi Airport,Yendi,GH,9.425,-0.004722,2408
DGM,,Dandugama Seaplane Base,Colombo,LK,7.1079,79.8721,0
KMS,DGSI,Kumasi Airport,Kumasi,GH,6.714560031890869,-1.5908199548721313,942
NYI,DGSN,Sunyani Airport,Sunyani,GH,7.36183,-2.32876,1014
TKD,DGTK,Takoradi Airport,Sekondi-Takoradi,GH,4.896059989929199,-1.7747600078582764,21
DHB,,Deer Harbor SPB,Deer Harbor,US,48.616667,-123.002778,0
DHG,,Dalnegorsk Airport,Dalnegorsk,RU,44.558748,135.490005,833
DHL,,Ad-Dali Airport,Ad-Dali,YE,13.73846,44.72719,
ABO,DIAO,Aboisso Airport,Aboisso,CI,5.461944,-3.234722,95
ABJ,DIAP,Félix-Houphouët-Boigny International Airport,Abidjan,CI,5.26139,-3.92629,21
OGO,DIAU,Abengourou Airport,Abengourou,CI,6.71556,-3.47028,676
,DIBC,Bocanda Airport,Bocanda,CI,7.033,-4.533,427
BXI,DIBI,Boundiali Airport,Boundiali,CI,9.540571,-6.469831,1286
BYK,DIBK,Bouaké Airport,Bouaké,CI,7.7388,-5.07367,1230
BQO,DIBN,Bouna Airport,Bouna,CI,9.255556,-3.033333,1148
BDK,DIBU,Soko Airport,Bondoukou,CI,8.01722,-2.76194,1247
,DIDB,Dabou Airport,Dabou,CI,5.351385,-4.403458,141
DIM,DIDK,Dimbokro Airport,Dimbokro,CI,6.65167,-4.64056,344
DJO,DIDL,Daloa Airport,,CI,6.79281,-6.47319,823
GGN,DIGA,Gagnoa Airport,Gagnoa,CI,6.102855,-5.986809,732
GGO,DIGL,Guiglo Airport,Guiglo,CI,6.534711,-7.526847,722
BBV,DIGN,Nero-Mer Airport,Grand-Béréby,CI,4.64341306686,-6.923961639400001,20
HGO,DIKO,Korhogo Airport,Korhogo,CI,9.38718,-5.55666,1214
MJC,DIMN,Man Airport,,CI,7.27207,-7.58736,1089
KEO,DIOD,Odienne Airport,Odienne,CI,9.539457,-7.56134,1365
OFI,DIOF,Ouango Fitini Airport,Ouango Fitini,CI,9.6,-4.05,974
SEO,DISG,Séguéla Airport,Séguéla,CI,7.96,-6.644167,1056
SPY,DISP,San Pedro Airport,,CI,4.74672,-6.66082,26
ZSS,DISS,Sassandra Airport,Sassandra,CI,4.928888,-6.133156,203
TXU,DITB,Tabou Airport,Tabou,CI,4.437809467315674,-7.362728118896484,39
TOZ,DITM,Mahana Airport,Touba,CI,8.2934,-7.674,1583
DIW,,Mawella Lagoon Seaplane Base,Dickwella,LK,5.990192,80.733129,16
ASK,DIYO,Yamoussoukro Airport,Yamoussoukro,CI,6.9031701088,-5.36558008194,699
DLR,,Dalnerechensk Airport,Dalnerechensk,RU,45.877949,133.735822,272
DIO,,Diomede Heliport,Diomede,US,65.758367,-168.953676,20
,DMDM,Muhammadu Buhari International Cargo Airport,Kanguwol,NG,11.94411,11.80845,1250
,DNEK,Eket Airport,Eket,NG,4.642841,7.949139,47
,DNES,Escravos Airport,Escravos,NG,5.61673,5.188485,10
DKA,DNKT,Katsina Airport,Katsina,NG,13.0078,7.66045,1660
ABV,DNAA,Nnamdi Azikiwe International Airport,Abuja,NG,9.00679,7.26317,1123
QUO,DNAI,Akwa Ibom International Airport,Uyo,NG,4.8725,8.093,170
AKR,DNAK,Akure Airport,Akure,NG,7.246739864349365,5.3010101318359375,1100
,DNAN,Chinua Achebe International Airport,Umuleri,NG,6.267167,6.871333,210
ABB,DNAS,Asaba International Airport,Asaba,NG,6.204167,6.665278,305
,DNBB,Bebi Airport,Bayaluga,NG,6.6215,9.319001,919
BCU,DNBC,Sir Abubakar Tafawa Balewa International Airport,Bauchi,NG,10.482833,9.744,1965
BNI,DNBE,Benin Airport,Benin,NG,6.316979885101318,5.5995001792907715,258
,DNBI,Bida Airport,Bida,NG,9.102856,6.01475,450
CBQ,DNCA,Margaret Ekpo International Airport,Calabar,NG,4.976019859313965,8.347200393676758,210
,DNDS,Dutse International Airport,Dutse,NG,11.795131,9.301164,1365
ENU,DNEN,Akanu Ibiam International Airport,Enegu,NG,6.474269866943359,7.561960220336914,466
,DNFB,Finima Bonny Airport,Finima,NG,4.40481,7.180867,
,DNFD,Forçados Terminal Airport,Forçados,NG,5.355,5.349002,11
GMO,DNGO,Gombe Lawanti International Airport,Gombe,NG,10.298889,10.9,1590
,DNGU,Gusau Airport,Gusau,NG,12.17286,6.696136,1520
IBA,DNIB,Ibadan Airport,Ibadan,NG,7.362460136413574,3.97832989692688,725
ILR,DNIL,Ilorin International Airport,Ilorin,NG,8.440210342407227,4.493919849395752,1126
QOW,DNIM,Sam Mbakwe International Airport,Owerri,NG,5.427060127258301,7.206029891967773,373
,DNJA,Jalingo Airport,Jalingo,NG,8.901997,11.283454,685
JOS,DNJO,Yakubu Gowon Airport,Jos,NG,9.639829635620117,8.869050025939941,4232
KAD,DNKA,Kaduna Airport,Kaduna,NG,10.696000099182129,7.320109844207764,2073
KAN,DNKN,Mallam Aminu International Airport,Kano,NG,12.0476,8.52462,1562
MIU,DNMA,Maiduguri International Airport,Maiduguri,NG,11.855299949645996,13.080900192260742,1099
MDI,DNMK,Makurdi Airport,Makurdi,NG,7.70388,8.61394,371
LOS,DNMM,Murtala Muhammed International Airport,Lagos,NG,6.57737,3.32116,135
MXJ,DNMN,Minna Airport,Minna,NG,9.652170181274414,6.462259769439697,834
PHC,DNPO,Port Harcourt International Airport,Port Harcourt,NG,5.0154900550842285,6.94959020614624,87
SKO,DNSO,Sadiq Abubakar III International Airport,Sokoto,NG,12.916299819946289,5.207190036773682,1010
QRW,DNSU,Warri Airport,Okpe,NG,5.59821,5.8187,242
YOL,DNYO,Yola Airport,Yola,NG,9.257550239562988,12.430399894714355,599
ZAR,DNZA,Zaria Airport,Zaria,NG,11.1302,7.68581,2170
DPT,,Deputatskiy Airport,Deputatskiy,RU,69.392503,139.890012,950
,DRRA,Tessaoua Airport,Tessaoua,NE,13.756598,8.020477,1358
,DRRC,Dogondoutchi Airport,Dogondoutchi,NE,13.663003,4.099674,961
,DRRD,Dosso Airport,Dosso,NE,13.049743,3.223241,738
,DRRE,Tera Airport,Tera,NE,13.953047,0.7403,850
,DRRG,Gaya Airport,Gaya,NE,11.890026,3.428024,662
,DRRL,Tillabery Airport,Tillabery,NE,14.2032,1.4744,692
MFQ,DRRM,Maradi Airport,Maradi,NE,13.5025,7.12675,1240
NIM,DRRN,Diori Hamani International Airport,Niamey,NE,13.4815,2.18361,732
,DRRP,La Tapoa Airport,La Tapoa,NE,12.484498,2.398452,722
THZ,DRRT,Tahoua Airport,Tahoua,NE,14.8757,5.26536,1266
,DRRU,Ouallam Airport,Ouallam,NE,14.355556,2.069444,892
AJY,DRZA,Mano Dayak International Airport,Agadez,NE,16.965999603271484,8.000109672546387,1657
,DRZD,Dirkou Airport,Dirkou,NE,18.963931,12.864132,1273
,DRZF,Diffa Airport,Diffa,NE,13.3729,12.6267,994
,DRZG,Goure Airport,Goure,NE,13.890296,10.177106,1378
,DRZI,Iferouane Airport,Iferouane,NE,19.066198,8.41496,2162
RLT,DRZL,Arlit Airport,Arlit,NE,18.7903995514,7.36595010757,1443
,DRZM,Maine-Soroa Airport,Maine-Soroa,NE,13.2055,12.0323,944
ZND,DRZR,Zinder Airport,Zinder,NE,13.779000282287598,8.983759880065918,1516
DSG,,Dilasag Airport,Dilasag,PH,16.445833333299998,122.206805556,60
TBJ,DTKA,Tabarka-Aïn Draham International Airport,Tabarka,TN,36.98,8.87694,230
MIR,DTMB,Monastir Habib Bourguiba International Airport,Monastir,TN,35.75809860229492,10.75469970703125,9
NBE,DTNH,Enfidha - Hammamet International Airport,Enfidha,TN,36.075833,10.438611,21
TUN,DTTA,Tunis Carthage International Airport,Tunis,TN,36.851002,10.2272,22
,DTTB,Bizerte Sidi Ahmed Air Base,Borj Challouf,TN,37.242356,9.787016,20
GAF,DTTF,Gafsa Ksar International Airport,Gafsa,TN,34.422000885009766,8.822500228881836,1060
GAE,DTTG,Gabès Matmata International Airport,Gabès,TN,33.733691,9.91941,407
DJE,DTTJ,Djerba Zarzis International Airport,Mellita,TN,33.875,10.7755,19
EBM,DTTR,El Borma Airport,El Borma,TN,31.7043,9.25462,827
SFA,DTTX,Sfax Thyna International Airport,Sfax,TN,34.71799850463867,10.690999984741211,85
TOE,DTTZ,Tozeur Nefta International Airport,Tozeur,TN,33.939701080322266,8.110560417175293,287
DVD,,Andavadoaka Airport,Andavadoaka,MG,-22.06608,43.259573,30
DWO,,Diyawanna Oya Seaplane Base,Sri Jayawardenepura Kotte,LK,6.906585,79.909,10
,DXAK,Akpaka Airport,Atakpamé,TG,7.583,1.117,689
,DXDP,Djangou Airport,Dapaong,TG,10.800417,0.242372,886
,DXKP,Kolokope Airport,Anié,TG,7.803451,1.295966,591
,DXMG,Sansanné-Mango Airport,Mango,TG,10.373011,0.471382,460
LRL,DXNG,Niamtougou International Airport,Niamtougou,TG,9.767330169677734,1.091249942779541,1515
,DXSK,Sokodé Airport,Sokodé,TG,8.994275,1.153004,1214
LFW,DXXX,Lomé–Tokoin International Airport,Lomé,TG,6.16561,1.25451,72
EAL,,Elenak Airport,Mejato Island,MH,9.319305555560002,166.847777778,16
,EBAM,Amougies Airfield,Mont-de-l'Enclus,BE,50.740101,3.4849,49
,EBAR,Arlon-Sterpenich Ultralight Airfield,Arlon,BE,49.661981,5.885953,1138
,EBAS,Gravenwezel Heliport,Schilde,BE,51.247065,4.54272,20
,EBAV,Avernas-le-Bauduin Ultralight Airfield,Hannut,BE,50.706147,5.067739,394
ANR,EBAW,Antwerp International Airport (Deurne),Antwerp,BE,51.190667,4.463153,39
BRU,EBBR,Brussels Airport,Zaventem,BE,50.901402,4.48444,175
,EBBT,Brasschaat Airfield,Brasschaat,BE,51.34259,4.503451,76
,EBCF,Cerfontaine Airfield,Cerfontaine,BE,50.152802,4.38722,955
CRL,EBCI,Brussels South Charleroi Airport,Charleroi,BE,50.460982,4.457158,614
,EBDT,Schaffen Airfield,Diest,BE,51.004032,5.064697,100
,EBGB,Grimbergen Airfield,Grimbergen,BE,50.948546,4.39181,70
,EBGG,Overboelare Airfield,Geraardsbergen,BE,50.7556,3.86389,56
GNE,,Ghent/Industry Zone Heliport,Gent,BE,51.020551,3.730341,26
,EBHN,Hoevenen Airfield,Hoevenen,BE,51.306099,4.38722,10
,EBKH,Balen-Keiheuvel Airfield,Balen,BE,51.180957,5.221124,131
KJK,EBKT,Flanders International Airport Kortrijk-Wevelgem,Wevelgem,BE,50.818878,3.209551,55
,EBLE,Leopoldsburg Airfield,Leopoldsburg,BE,51.12,5.307222,207
